start_lat,start_lng,end_lat,end_lng,name,station,opacity
42.376494,-71.129256,42.3759295,-71.1295113,Foster Pl,harvard,0.01
42.3719945,-71.1195003,42.3733436,-71.1185736,Dunster St,harvard,0.01
42.3776284,-71.1231464,42.3751387,-71.119148,Garden St,harvard,0.01
42.3747603,-71.1088503,42.3755062,-71.1149625,Cambridge St,harvard,0.01
42.3958057,-71.1307921,42.3965925,-71.1292664,Dudley St,davis,0.01
42.3696609,-71.089878,42.3663022,-71.0917948,Cardinal Medeiros Ave,kendall,0.05
42.3746985,-71.1381565,42.3746395,-71.137959,Gerrys Landing Rd,harvard,0.4
42.3742524,-71.1285137,42.3733898,-71.1267441,Memorial Dr,harvard,0.01
42.3739877,-71.107427,42.3708078,-71.1096223,Dana St,harvard,0.01
42.3697255,-71.1220493,42.3697927,-71.1224694,Memorial Dr,harvard,0.01
42.384667,-71.1310166,42.3851913,-71.1317254,Garden St,porter,0.01
42.3997948,-71.1389071,42.3989641,-71.1409284,Alewife Brook Pkwy,alewife,0.01
42.3768895,-71.108307,42.3778979,-71.1081355,Roberts Rd,harvard,0.02
42.3838691,-71.116089,42.3862003,-71.1161706,Oxford St,porter,0.01
42.3884182,-71.1223886,42.3879688,-71.12136,Richdale Ave,porter,0.01
42.3553503,-71.0987915,42.3559625,-71.099165,Fowler St,central,0.01
42.3972296,-71.1278936,42.3969717,-71.1276092,Locke St,davis,0.01
42.3660398,-71.0888442,42.3642128,-71.0894887,Galileo Galilei Way,kendall,0.01
42.3810162,-71.1291272,42.3811381,-71.1288732,Buckingham St,porter,0.01
42.3942259,-71.1308323,42.3947592,-71.130839,Cedar St,davis,0.01
42.3626242,-71.0841828,42.3624328,-71.0843303,Main St,kendall,3.44
42.3853021,-71.1275077,42.3850699,-71.1280073,Newell Terrace,porter,0.01
42.3887018,-71.1434947,42.388708,-71.1434358,Alewife Brook Pkwy,alewife,0.01
42.3575129,-71.1035608,42.357683,-71.1036988,Waverly St,central,0.01
42.3905476,-71.1540004,42.3905854,-71.1539946,Spinelli Pl,alewife,0.01
42.381712,-71.1195745,42.3817369,-71.1196856,Wendell St,porter,0.01
42.3757412,-71.1239192,42.3732049,-71.1207696,Brattle St,harvard,0.01
42.3658706,-71.088999,42.3642128,-71.0894887,Galileo Galilei Way,kendall,0.01
42.3693379,-71.0965355,42.3669946,-71.0978463,Columbia St,central,0.02
42.3664882,-71.0935226,42.3663589,-71.0935048,Market St,kendall,0.01
42.3760231,-71.1176167,42.3763571,-71.1190747,Cambridge St,harvard,0.01
42.3923828,-71.1216514,42.391013,-71.1199443,Orchard St,porter,0.01
42.3621967,-71.1137491,42.3655671,-71.103985,River St,central,0.01
42.3708593,-71.078596,42.3710199,-71.0798451,Cambridge St,kendall,0.01
42.3566472,-71.1019732,42.3581066,-71.0990139,Vassar St,central,0.01
42.375168,-71.139,42.3748265,-71.1380229,Fresh Pond Pkwy,harvard,0.01
42.371927,-71.0813208,42.3678279,-71.0822874,Sciarappa St,kendall,0.03
42.3809723,-71.1285597,42.3811381,-71.1288732,Concord Ave,porter,0.01
42.396974,-71.1411665,42.395041,-71.140628,Alewife Brook Pkwy,alewife,0.01
42.3834181,-71.1424314,42.3849777,-71.1414246,Fresh Pond Pkwy,alewife,0.01
42.365116,-71.0775389,42.3657326,-71.082371,Binney St,kendall,0.01
42.3874668,-71.1383615,42.3871278,-71.1410186,Bay State Rd,alewife,0.01
42.393397,-71.1351501,42.3936191,-71.1351878,Jefferson Park,alewife,0.01
42.3913751,-71.1304057,42.3912262,-71.1291888,Van Norden St,davis,0.01
42.3825981,-71.1195716,42.3886815,-71.1194648,Massachusetts Ave,porter,0.05
42.3782527,-71.1102888,42.377781,-71.1100418,Kirkland St,harvard,0.03
42.3886654,-71.1273766,42.3883365,-71.1254495,Hubbard Ave,porter,0.01
42.3704936,-71.0988351,42.3709136,-71.0999136,Gardner Rd,central,0.01
42.3782378,-71.1106622,42.3781373,-71.1107186,Scott St,harvard,0.01
42.3978308,-71.1412688,42.3970855,-71.1403405,Alewife Station Access Rd,alewife,0.01
42.3708609,-71.1098215,42.3708078,-71.1096223,Harvard St,central,0.01
42.3696562,-71.1040895,42.3694062,-71.1033812,West St,central,0.01
42.3586298,-71.1066986,42.3639944,-71.1013648,Brookline St,central,0.02
42.3873565,-71.1421144,42.3874046,-71.1420627,Concord Ave,alewife,0.23
42.3693611,-71.0717983,42.3687726,-71.0723393,Museum Way,kendall,0.67
42.3905391,-71.1194367,42.3899065,-71.1204682,Allen St,porter,0.01
42.3644821,-71.0945668,42.3637618,-71.0917719,Washington St,kendall,0.01
42.3562856,-71.1142161,42.3653108,-71.1042956,Magazine St,central,0.46
42.3700986,-71.1037859,42.3699609,-71.1038849,West Pl,central,0.01
42.3736745,-71.1005265,42.3735386,-71.1006017,Springfield St,central,0.02
42.380933,-71.142465,42.3804793,-71.1423123,Grozier Rd,alewife,0.01
42.3710505,-71.1342228,42.3710762,-71.1345502,Eliot Bridge,harvard,0.01
42.3942689,-71.1546498,42.3940425,-71.156213,Normandy Ave,alewife,0.04
42.3611241,-71.0965498,42.3654837,-71.103841,Massachusetts Ave,central,0.01
42.3567075,-71.0947382,42.358095,-71.090592,Memorial Dr,kendall,0.01
42.3818525,-71.1348275,42.3815317,-71.1343746,Vassal Ln,porter,0.01
42.373393,-71.100431,42.3722128,-71.0989926,Hampshire St,central,0.01
42.3873151,-71.1388904,42.3874465,-71.1388398,Birch St,alewife,0.01
42.3696891,-71.0932942,42.3696489,-71.0944499,Seckel St,central,0.04
42.3638247,-71.087458,42.3630722,-71.0880426,Ames St,kendall,0.01
42.368751,-71.1348861,42.370195,-71.1343636,Greenough Blvd,harvard,0.01
42.3750561,-71.1364319,42.372885,-71.1213966,Mt Auburn St,harvard,0.06
42.3831034,-71.1430822,42.3872137,-71.1422329,Concord Ave,alewife,0.16
42.3734751,-71.1187121,42.3733848,-71.1186191,Massachusetts Ave,harvard,0.01
42.3885616,-71.1195967,42.3887168,-71.1196439,Massachusetts Ave,porter,0.01
42.3738255,-71.1250516,42.3740794,-71.1248956,Brewer St,harvard,0.01
42.3897691,-71.1488529,42.3886414,-71.1436807,Concord Ave,alewife,0.01
42.3774536,-71.1235261,42.3776453,-71.1231611,Berkeley St,harvard,0.01
42.3848285,-71.1194676,42.3887168,-71.1196439,Massachusetts Ave,porter,0.01
42.3979766,-71.129619,42.3976992,-71.1299311,Cameron Ave,davis,0.01
42.3648832,-71.0811246,42.3650926,-71.0827615,Linskey Way,kendall,0.01
42.3613432,-71.0984499,42.3634165,-71.1019284,Green St,central,0.03
42.3570648,-71.1074707,42.3573756,-71.1080122,Putnam Ave,central,0.03
42.3678601,-71.0742467,42.3677566,-71.0743279,Cambridge Pkwy,kendall,0.02
42.3730463,-71.1381537,42.3732345,-71.1389011,Coolidge Hill,harvard,0.01
42.3803915,-71.1398222,42.3843422,-71.1410898,Lakeview Ave,alewife,0.01
42.4001425,-71.1369932,42.3989641,-71.1409284,Alewife Brook Pkwy,alewife,0.01
42.3837956,-71.1277843,42.3845315,-71.1258521,Gray Gardens E,porter,0.01
42.3586797,-71.1138789,42.3587856,-71.1140131,Florence St,central,0.01
42.3681878,-71.1083808,42.3654837,-71.103841,Massachusetts Ave,central,0.02
42.3996397,-71.1380511,42.3988423,-71.140375,left,alewife,0.11
42.3890178,-71.1198081,42.3887168,-71.1196439,Massachusetts Ave,porter,0.01
42.3622486,-71.0834632,42.3626242,-71.0841828,Broadway/Main St,kendall,0.01
42.3883253,-71.1187099,42.3886508,-71.1194942,Somerville Ave,porter,0.01
42.3724769,-71.1381366,42.37252,-71.1382239,Coolidge Hill,harvard,0.01
42.3724386,-71.1370923,42.37252,-71.1382239,Coolidge Hill,harvard,0.01
42.3568279,-71.1077184,42.3570648,-71.1074707,Putnam Ct,central,0.02
42.3817756,-71.1565662,42.3789258,-71.1485211,Huron Ave,alewife,0.01
42.3639966,-71.0873125,42.3630722,-71.0880426,Ames St,kendall,1.29
42.3614422,-71.0800029,42.3614821,-71.0799619,MA-3 S/MA-3A S,kendall,0.01
42.353676,-71.1103771,42.3536879,-71.1104132,Boston Univ Bridge,central,0.01
42.3663845,-71.1083165,42.3651385,-71.1062018,Franklin St,central,0.01
42.3944222,-71.1331465,42.3957473,-71.1332004,Montgomery St,alewife,0.01
42.3867905,-71.1408045,42.388369,-71.143116,Concord Ave,alewife,0.35
42.3837986,-71.1195808,42.3837876,-71.1194418,Garfield St,porter,0.01
42.3723597,-71.1218218,42.372885,-71.1213966,Eliot St,harvard,0.01
42.3688322,-71.0722873,42.3687726,-71.0723393,Museum Way,kendall,0.01
42.3978901,-71.1362353,42.3956965,-71.1383441,Alewife Linear Park/Somerville Community Path,alewife,0.01
42.3866554,-71.137221,42.3874592,-71.1383258,Field St,alewife,0.02
42.3635846,-71.0974886,42.3632699,-71.0975176,Cherry St,central,0.02
42.3771995,-71.1349794,42.3732049,-71.1207696,Brattle St,harvard,0.01
42.3868342,-71.1408504,42.3868803,-71.1410293,Concord Ave,alewife,0.01
42.3893996,-71.1200709,42.3887168,-71.1196439,Massachusetts Ave,porter,0.01
42.3746975,-71.1499184,42.3747419,-71.1502077,Belmont St,alewife,0.01
42.3597263,-71.0957214,42.3627491,-71.0898633,Vassar St,kendall,0.01
42.3676331,-71.1147227,42.3704873,-71.1144672,Banks St,harvard,0.01
42.353978,-71.1103133,42.3544298,-71.1104328,Brookline St,central,0.01
42.369384,-71.0836237,42.3659971,-71.084439,5th St,kendall,0.01
42.3826743,-71.1307043,42.3847805,-71.1277976,Huron Ave,porter,0.01
42.3859768,-71.1245754,42.3858394,-71.1250327,Hillside Pl,porter,0.01
42.3551305,-71.1101195,42.3551175,-71.1102278,Waverly St,central,0.01
42.3795483,-71.1086221,42.3793683,-71.1091873,Shady Hill Square,harvard,0.01
42.3564441,-71.0974284,42.3571043,-71.0954583,Amherst Alley,kendall,0.01
42.3697927,-71.1224694,42.37342,-71.1195063,John F. Kennedy St,harvard,0.14
42.3845971,-71.1413443,42.3846569,-71.1414854,Vassal Ln,alewife,0.01
42.3948073,-71.1408247,42.3947297,-71.1409581,Cambridge Park Dr,alewife,0.01
42.3781717,-71.1492447,42.3780999,-71.1487952,High St,alewife,0.01
42.3774233,-71.1448634,42.3781444,-71.1448112,Meadow Way,alewife,0.01
42.3619207,-71.1022352,42.3623745,-71.1029013,Brookline St,central,0.02
42.3920079,-71.1354354,42.3920241,-71.134984,Jackson Pl,alewife,0.25
42.3624338,-71.1100937,42.3640226,-71.1083014,Pleasant St,central,0.02
42.3720411,-71.0822009,42.371927,-71.0813208,Gore St,kendall,0.01
42.3625295,-71.1000373,42.3629518,-71.0995844,Sidney St,central,0.01
42.3820577,-71.128708,42.382063,-71.1267338,Linnaean St,porter,0.07
42.3698584,-71.1047146,42.3694062,-71.1033812,West St,central,0.01
42.3971594,-71.1271343,42.3970605,-71.1260222,Kingston St,davis,0.19
42.3550224,-71.0997731,42.3567075,-71.0947382,Memorial Dr,central,0.01
42.3596437,-71.1105176,42.3653108,-71.1042956,Magazine St,central,0.02
42.382031,-71.1350901,42.3815317,-71.1343746,Vassal Ln,porter,0.01
42.3656496,-71.0910191,42.3654283,-71.0911269,Hampshire St,kendall,0.01
42.3539585,-71.1110335,42.3544298,-71.1104328,Boston Univ Bridge,central,0.01
42.3762026,-71.1525544,42.3763181,-71.1516874,Thingvalla Ave,alewife,0.01
42.3939893,-71.1263454,42.3964747,-71.1222955,Day St,davis,0.01
42.3558337,-71.0963845,42.3586818,-71.087905,Memorial Dr,kendall,0.01
42.3699417,-71.1038366,42.3696847,-71.1031906,Inman Pl,central,0.01
42.3696032,-71.0852745,42.3662019,-71.086068,6th St,kendall,0.03
42.3677063,-71.0926516,42.3668117,-71.0924075,Webster Ave,kendall,0.01
42.3570116,-71.1073869,42.3573756,-71.1080122,Putnam Ave,central,0.01
42.3733436,-71.1185736,42.3733848,-71.1186191,Massachusetts Ave,harvard,8.11
42.3598305,-71.1122492,42.3601476,-71.1127833,Putnam Ave,central,0.01
42.3750374,-71.1500399,42.3769298,-71.1504403,Holworthy St,alewife,0.01
42.381929,-71.1326745,42.3828631,-71.1319524,Royal Ave,porter,0.01
42.3763388,-71.1190362,42.3763571,-71.1190747,Cambridge St,harvard,0.01
42.3958287,-71.1307345,42.3965925,-71.1292664,Dudley St,davis,0.01
42.3998267,-71.1372012,42.399493,-71.1380254,Columbus Ave,alewife,0.01
42.3756056,-71.1282165,42.3768089,-71.1276484,Willard St,harvard,0.13
42.3627386,-71.0788594,42.3630685,-71.0823604,Broad Canal Walk,kendall,0.68
42.3912853,-71.1237295,42.3911372,-71.1234543,Houston Park,porter,0.01
42.3849859,-71.1314516,42.3851913,-71.1317254,Garden St,porter,0.09
42.3904222,-71.1408422,42.390605,-71.1412873,Alewife Brook Pkwy,alewife,0.11
42.3605379,-71.1116056,42.3607892,-71.1120357,Allston St,central,0.01
42.3773384,-71.1505859,42.3775104,-71.1506498,Holworthy St,alewife,0.01
42.3797009,-71.1101948,42.379608,-71.111236,Bryant St,harvard,0.01
42.3689902,-71.1102703,42.3654837,-71.103841,Massachusetts Ave,central,0.01
42.3625147,-71.0963997,42.362647,-71.0990652,State St,central,0.02
42.362868,-71.1145839,42.3619987,-71.1143181,Blackstone St,central,0.01
42.3983235,-71.1312582,42.3979813,-71.1308373,Massachusetts Ave,davis,0.01
42.3651385,-71.1062018,42.3656114,-71.1040552,Western Ave,central,0.15
42.3938222,-71.1208882,42.3965069,-71.1225638,Elm St,davis,0.01
42.3887047,-71.1433904,42.388708,-71.1434358,Alewife Brook Pkwy,alewife,0.01
42.3815151,-71.1340945,42.3847805,-71.1277976,Huron Ave,porter,0.05
42.3964747,-71.1222955,42.3966096,-71.1225365,Davis Square,davis,0.56
42.3791292,-71.1202609,42.3778843,-71.1206507,Waterhouse St,harvard,0.01
42.3752741,-71.148053,42.3756964,-71.1481067,Homer Ave,alewife,0.01
42.3822779,-71.1129929,42.3827119,-71.1132139,Carver St,porter,0.02
42.3944842,-71.1406471,42.3946477,-71.1409535,Cambridge Park Dr,alewife,0.01
42.3805419,-71.1532467,42.3789258,-71.1485211,Huron Ave,alewife,0.01
42.3644019,-71.084788,42.3638393,-71.0834749,Potter St,kendall,0.03
42.3573911,-71.0945506,42.3576712,-71.0946405,Amherst St,central,0.18
42.3894437,-71.1287424,42.3879688,-71.12136,Richdale Ave,porter,0.15
42.3768209,-71.1372793,42.3732049,-71.1207696,Brattle St,harvard,0.01
42.3597463,-71.0956806,42.3627491,-71.0898633,Vassar St,kendall,0.01
42.3879425,-71.1278572,42.3863603,-71.1269548,Raymond St,porter,0.01
42.3678401,-71.0878822,42.366546,-71.0881975,Fulkerson St,kendall,0.02
42.3761687,-71.1543485,42.3763181,-71.1516874,Thingvalla Ave,alewife,0.01
42.3655023,-71.1394172,42.3679379,-71.1358904,Greenough Blvd,harvard,0.01
42.3811381,-71.1288732,42.3815987,-71.128778,Buckingham St,porter,0.03
42.384914,-71.126078,42.3863603,-71.1269548,Raymond St,porter,0.01
42.3748243,-71.1122961,42.3747666,-71.1123104,Felton St,harvard,0.01
42.3892481,-71.12479,42.3889283,-71.1250403,Walden St,porter,0.01
42.3892437,-71.1463928,42.3886414,-71.1436807,Concord Ave,alewife,0.01
42.3837291,-71.1290039,42.3838672,-71.129315,Garden St,porter,0.01
42.3770568,-71.1455331,42.3786149,-71.1460386,Larchwood Dr,alewife,0.01
42.3766939,-71.1448108,42.376663,-71.144087,Larchwood Dr,harvard,0.09
42.3624563,-71.1074024,42.3653108,-71.1042956,Magazine St,central,0.01
42.3737194,-71.1012963,42.3704026,-71.1037709,Antrim St,central,0.01
42.3691478,-71.117424,42.3692122,-71.1173602,John W. Weeks Bridge,harvard,0.14
42.3729869,-71.1212492,42.3732049,-71.1207696,Brattle Square,harvard,0.01
42.371059,-71.1144517,42.3710133,-71.114132,Arrow St,harvard,0.01
42.3661302,-71.0929361,42.3639097,-71.0873928,Broadway,kendall,0.01
42.3825459,-71.1255898,42.3848325,-71.1193304,Linnaean St,porter,0.01
42.3935797,-71.1308145,42.3953207,-71.1279784,Rice St,davis,0.08
42.3716484,-71.0951965,42.3669946,-71.0978463,Columbia St,central,0.01
42.3677673,-71.115949,42.3677709,-71.1163511,Flagg St,harvard,0.01
42.3780719,-71.1297719,42.3778048,-71.1298572,Craigie St,harvard,0.08
42.3732099,-71.0905021,42.3724087,-71.0906765,Harding St,kendall,0.01
42.3735615,-71.0996511,42.3733872,-71.0981542,Cambridge St,central,0.03
42.382063,-71.1267338,42.3848325,-71.1193304,Linnaean St,porter,0.21
42.3835865,-71.1281359,42.3845315,-71.1258521,Gray Gardens E,porter,0.01
42.3760966,-71.117541,42.3760691,-71.1174036,Massachusetts Ave,harvard,0.04
42.3692539,-71.0711691,42.3693611,-71.0717983,Museum Way,kendall,0.67
42.383105,-71.1421263,42.3835896,-71.142315,Lexington Ave,alewife,0.01
42.3680388,-71.0907622,42.3663022,-71.0917948,Cardinal Medeiros Ave,kendall,0.01
42.3678009,-71.0984368,42.3672504,-71.0987497,Elm St,central,0.01
42.3629015,-71.0787351,42.3623298,-71.0788609,Edwin H Land Blvd/First St,kendall,0.01
42.395805,-71.1308598,42.3965925,-71.1292664,Dudley St,davis,0.03
42.3609293,-71.0815908,42.3609726,-71.0819973,Memorial Dr,kendall,0.09
42.369407,-71.0690752,42.3692437,-71.069201,North Point Blvd,kendall,0.01
42.3671406,-71.0753924,42.3649931,-71.0774278,Edwin H Land Blvd,kendall,0.01
42.3622901,-71.0849109,42.3624016,-71.0861127,Main St,kendall,0.01
42.3722128,-71.0989926,42.3655671,-71.103985,Prospect St,central,0.29
42.3651674,-71.1049719,42.3655671,-71.103985,River St,central,0.01
42.3580456,-71.0942887,42.3582105,-71.0942145,Massachusetts Ave,central,0.33
42.3717679,-71.1176012,42.3728852,-71.117128,Linden St,harvard,0.01
42.381127,-71.1544679,42.3789258,-71.1485211,Huron Ave,alewife,0.01
42.3844431,-71.1299761,42.3845651,-71.1298442,Winslow St,porter,0.01
42.3925039,-71.1270166,42.3926013,-71.1275655,Rindge Ave,davis,0.01
42.3902327,-71.1423993,42.3901113,-71.1421846,Terminal Rd,alewife,0.01
42.3845047,-71.1211648,42.3848325,-71.1193304,Linnaean St,porter,0.01
42.364744,-71.1107678,42.3656114,-71.1040552,Western Ave,central,0.25
42.3755699,-71.1437032,42.3753698,-71.1437608,Mt Auburn St,harvard,0.01
42.3858116,-71.1266087,42.3863603,-71.1269548,Raymond St,porter,0.01
42.3849399,-71.120759,42.3846247,-71.1206078,Humboldt St,porter,0.01
42.3924045,-71.1350084,42.3929878,-71.135042,Jackson Pl,alewife,0.01
42.3693291,-71.0975536,42.3672504,-71.0987497,Elm St,central,0.01
42.3665295,-71.1159649,42.369606,-71.1181555,Memorial Dr,harvard,0.01
42.3945964,-71.1378983,42.3956675,-71.1383844,Somerville Community Path,alewife,1.03
42.3736745,-71.1352611,42.3733606,-71.1347647,Gerrys Landing Rd,harvard,0.01
42.3980004,-71.1347659,42.3956965,-71.1383441,Alewife Linear Park/Somerville Community Path,alewife,0.01
42.374426,-71.1188452,42.3733848,-71.1186191,Massachusetts Ave,harvard,0.1
42.3696899,-71.0973431,42.3672504,-71.0987497,Elm St,central,0.01
42.377631,-71.149561,42.3775476,-71.1490774,Holmes St,alewife,0.01
42.3687154,-71.1135085,42.3703582,-71.1133199,Putnam Ave,harvard,0.01
42.3535685,-71.1046206,42.3547794,-71.1050644,Amesbury St,central,0.05
42.3844658,-71.1412257,42.3844153,-71.1411927,Vassal Ln,alewife,0.01
42.3886798,-71.1435913,42.388708,-71.1434358,Alewife Brook Pkwy,alewife,0.01
42.3673407,-71.1034417,42.3668463,-71.1039746,Vail Ct,central,0.01
42.3977869,-71.1463152,42.3976669,-71.1436366,Alewife Station Access Rd,alewife,0.01
42.3912459,-71.1245891,42.3917366,-71.123923,Cogswell Ave,porter,0.01
42.3616934,-71.0976567,42.3617348,-71.0975628,Landsdowne St,central,0.01
42.4001231,-71.1366094,42.399493,-71.1380254,Columbus Ave,alewife,0.01
42.3777627,-71.1375821,42.3768157,-71.1373086,Fayerweather St,harvard,0.01
42.3790202,-71.1511091,42.3785703,-71.1509776,Holworthy St,alewife,0.01
42.3713306,-71.1084465,42.3706705,-71.1064816,Chatham St,central,0.01
42.3827269,-71.1358131,42.3825294,-71.1355585,Vassal Ln,porter,0.01
42.3648755,-71.1138796,42.3644733,-71.1138643,Putnam Ave,central,0.01
42.3733806,-71.1269126,42.3734534,-71.1268503,Memorial Dr,harvard,0.12
42.3549613,-71.09945,42.3550597,-71.0988025,Memorial Dr,central,0.01
42.3654709,-71.1149238,42.3651757,-71.1150034,Banks St,central,0.01
42.3713361,-71.0878559,42.3712294,-71.0870603,Otis St,kendall,0.01
42.3627232,-71.1097508,42.3640226,-71.1083014,Pleasant St,central,0.02
42.3776881,-71.1277571,42.3786564,-71.1261795,Berkeley Pl,harvard,0.01
42.3969717,-71.1276092,42.3970605,-71.1260222,Kingston St/Shea Rd,davis,0.03
42.3720932,-71.1110052,42.3723145,-71.1114445,Trowbridge Terrace,harvard,0.01
42.3783848,-71.1264874,42.3786564,-71.1261795,Berkeley Pl,harvard,0.01
42.3866167,-71.1411968,42.3867097,-71.1412309,Concord Ave,alewife,0.01
42.3852349,-71.1325313,42.3871503,-71.128268,Walden St,porter,0.01
42.3756964,-71.1481067,42.3762166,-71.1470871,Aberdeen Ave,alewife,0.05
42.393567,-71.1341538,42.3937671,-71.1371061,Rindge Ave,alewife,0.01
42.3654566,-71.1128708,42.3653853,-71.1108785,Callendar St/Callender St,central,0.01
42.3957432,-71.1362989,42.3956675,-71.1383844,Alewife Linear Park/Somerville Community Path,alewife,0.31
42.3818198,-71.1296199,42.3821657,-71.1288931,Linnaean St,porter,0.02
42.3768089,-71.1276484,42.3732049,-71.1207696,Brattle St,harvard,0.17
42.3652878,-71.0982767,42.366001,-71.1007514,Washington St,central,0.02
42.3765309,-71.1492053,42.3771189,-71.1493314,Holworthy Pl,alewife,0.01
42.363685,-71.0819017,42.3639493,-71.0834123,Kendall St,kendall,0.01
42.3608564,-71.0801598,42.3608607,-71.0812593,Edwin H Land Blvd,kendall,0.01
42.3786904,-71.1103847,42.3781373,-71.1107186,Scott St,harvard,0.01
42.3978288,-71.1525686,42.3976669,-71.1436366,Acorn Park Dr,alewife,0.01
42.3643861,-71.0928883,42.3638922,-71.0931728,Portland St,kendall,0.01
42.3773811,-71.1337153,42.3732049,-71.1207696,Brattle St,harvard,0.02
42.3651147,-71.0760356,42.3629214,-71.0781729,Cambridge Pkwy,kendall,0.01
42.3703168,-71.1044148,42.370186,-71.104505,Broadway Terrace,central,0.01
42.3803369,-71.1217272,42.3797822,-71.1215337,Langdon St,harvard,0.01
42.3707152,-71.0892393,42.3663022,-71.0917948,Cardinal Medeiros Ave,kendall,0.01
42.3697536,-71.1033637,42.3696847,-71.1031906,Inman Pl,central,0.01
42.3655977,-71.143054,42.3679379,-71.1358904,Greenough Blvd,harvard,0.01
42.3788815,-71.1537774,42.3787957,-71.1523125,Vineyard St,alewife,0.05
42.3754737,-71.144459,42.3755699,-71.1437032,Brattle St,harvard,0.01
42.3651728,-71.1013091,42.3644325,-71.1020946,Norfolk St,central,0.01
42.3884893,-71.1262771,42.3883365,-71.1254495,Hubbard Ave,porter,0.01
42.3785548,-71.146079,42.3786149,-71.1460386,Larchwood Dr,alewife,0.01
42.3636284,-71.1086771,42.3640226,-71.1083014,Pleasant St,central,0.01
42.3669971,-71.0742184,42.3629214,-71.0781729,Cambridge Pkwy,kendall,0.01
42.3762171,-71.119604,42.3733848,-71.1186191,Massachusetts Ave,harvard,0.09
42.3883815,-71.1187908,42.3886508,-71.1194942,Somerville Ave,porter,0.01
42.3703395,-71.1036126,42.3700717,-71.1029309,Broadway,central,0.01
42.3956366,-71.1283342,42.3950629,-71.1276917,Massachusetts Ave,davis,0.01
42.3687129,-71.0837836,42.3659971,-71.084439,5th St,kendall,0.02
42.3696223,-71.1214273,42.3697225,-71.1225218,John F. Kennedy St,harvard,0.01
42.3646143,-71.1123125,42.3656114,-71.1040552,Western Ave,central,0.04
42.365263,-71.1049964,42.3656114,-71.1040552,Western Ave,central,0.09
42.3764729,-71.13912,42.3732049,-71.1207696,Brattle St,harvard,0.01
42.3791415,-71.1338458,42.3795721,-71.1312919,Highland St,harvard,0.01
42.3778494,-71.1209603,42.3777832,-71.1203762,Waterhouse St,harvard,0.08
42.3803428,-71.1140885,42.3800152,-71.1151896,Gorham St,harvard,0.01
42.3804816,-71.1351575,42.3814861,-71.134957,Blakeslee St,harvard,0.01
42.3723208,-71.1218531,42.372885,-71.1213966,Eliot St,harvard,0.05
42.3585,-71.1140915,42.3587856,-71.1140131,Pleasant St,central,0.02
42.3614507,-71.0802378,42.3618028,-71.080192,Memorial Dr,kendall,0.01
42.371985,-71.087371,42.3719239,-71.0868792,Cambridge St,kendall,0.01
42.3563522,-71.0977217,42.3571043,-71.0954583,Amherst Alley,central,0.01
42.3832785,-71.1292611,42.3845315,-71.1258521,Gray Gardens W,porter,0.01
42.3566276,-71.09418,42.3586818,-71.087905,Memorial Dr,kendall,0.01
42.379608,-71.111236,42.3781373,-71.1107186,Irving St,harvard,0.04
42.3799406,-71.1189954,42.3799361,-71.1189125,Everett St,harvard,0.01
42.3722389,-71.0705251,42.3691398,-71.0731447,Austin St/Gilmore Bridge,kendall,0.01
42.4030936,-71.1342872,42.3989641,-71.1409284,Alewife Brook Pkwy,alewife,0.01
42.3927028,-71.1462874,42.3891643,-71.1460351,Fawcett St,alewife,0.01
42.3622412,-71.0845266,42.3624016,-71.0861127,Main St,kendall,0.01
42.367855,-71.1358257,42.3679379,-71.1358904,Greenough Blvd,harvard,0.26
42.3768678,-71.1129974,42.3763208,-71.1156835,Kirkland St,harvard,0.01
42.3729472,-71.0861718,42.3723671,-71.0846167,Gore St/Medford St,kendall,0.01
42.381731,-71.1235453,42.3830059,-71.1246111,Walker St,porter,0.01
42.3702576,-71.0890235,42.3703887,-71.0894291,James Way/Wellington Harrington Memorial Way,kendall,0.01
42.3593123,-71.0860047,42.359041,-71.0868146,Memorial Dr,kendall,0.01
42.3865527,-71.1408907,42.3867097,-71.1412309,Fresh Pond Pkwy,alewife,0.01
42.3550603,-71.1050084,42.3551537,-71.1050313,Vassar St,central,0.01
42.3672597,-71.1099873,42.3651385,-71.1062018,Franklin St,central,0.05
42.3628517,-71.0783116,42.3622883,-71.0783975,Edwin H Land Blvd,kendall,0.01
42.3813733,-71.131233,42.3810561,-71.1319448,Clement Cir,porter,0.01
42.3949233,-71.1406956,42.3947297,-71.1409581,Cambridge Park Dr,alewife,0.01
42.3914213,-71.1232057,42.3886815,-71.1194648,Massachusetts Ave,porter,0.01
42.3536175,-71.1104409,42.3539069,-71.1103554,Boston Univ Bridge,central,0.01
42.3609237,-71.1090937,42.3653108,-71.1042956,Magazine St,central,0.01
42.3957219,-71.1342349,42.3956845,-71.1362957,Dudley St,alewife,0.02
42.3707712,-71.0892067,42.3663022,-71.0917948,Cardinal Medeiros Ave,kendall,0.01
42.3766803,-71.143866,42.3777175,-71.1429021,Larchwood Dr,alewife,0.01
42.369823,-71.1225763,42.3697927,-71.1224694,Memorial Dr,harvard,0.01
42.3845382,-71.1298247,42.3838672,-71.129315,Sherman St,porter,0.01
42.3743514,-71.1256718,42.372885,-71.1213966,Mt Auburn St,harvard,0.01
42.3998971,-71.1378102,42.3989641,-71.1409284,Alewife Brook Pkwy,alewife,0.01
42.3881676,-71.1434576,42.3881904,-71.1435006,Concord Ave,alewife,0.01
42.37655,-71.1357699,42.3749858,-71.1352515,Channing St,harvard,0.01
42.3976821,-71.1418836,42.3978329,-71.1418809,Alewife Brook Pkwy,alewife,0.01
42.3793096,-71.1394493,42.3843422,-71.1410898,Lakeview Ave,alewife,0.01
42.3755937,-71.1195018,42.3749642,-71.1190669,Garden St,harvard,0.01
42.3857235,-71.13511,42.3874592,-71.1383258,Field St,alewife,0.01
42.3615759,-71.1073684,42.361939,-71.1079736,Lawrence St,central,0.01
42.3957539,-71.1328201,42.3956845,-71.1362957,Dudley St,alewife,0.01
42.385607,-71.13806,42.3867905,-71.1408045,Concord Ave,alewife,0.01
42.3700963,-71.1129341,42.3733848,-71.1186191,Massachusetts Ave,harvard,0.01
42.3648469,-71.0894669,42.3647784,-71.0894878,Galileo Galilei Way,kendall,0.01
42.3989641,-71.1409284,42.3987755,-71.1408422,Massachusetts 16/U.S. Highway 3/Alewife Brook Parkway,alewife,0.62
42.3917892,-71.1238528,42.3886815,-71.1194648,Massachusetts Ave,porter,0.01
42.3768763,-71.1076682,42.3769666,-71.1082872,Magnolia Ave,harvard,0.01
42.3754938,-71.1086496,42.374756,-71.1088182,Roberts Rd,harvard,0.01
42.3551003,-71.1065321,42.3559361,-71.1055362,Waverly St,central,0.01
42.3591244,-71.1110791,42.3653108,-71.1042956,Magazine St,central,0.03
42.3611289,-71.0817992,42.361181,-71.0816511,Main St,kendall,0.45
42.3903972,-71.1418017,42.3939749,-71.1404823,Alewife Brook Pkwy,alewife,0.01
42.3653323,-71.0984653,42.366001,-71.1007514,Washington St,central,0.01
42.3650775,-71.1046877,42.3651885,-71.1048687,Green St,central,0.01
42.3749244,-71.1342674,42.372885,-71.1213966,Mt Auburn St,harvard,0.01
42.3636458,-71.1086566,42.3640226,-71.1083014,Pleasant St,central,0.01
42.3606248,-71.0818902,42.3609287,-71.081252,Memorial Dr,kendall,0.15
42.3980548,-71.1418267,42.3978329,-71.1418809,Alewife Brook Pkwy,alewife,0.01
42.3571768,-71.0950389,42.3573911,-71.0945506,Amherst St,central,0.18
42.3643097,-71.1160607,42.3656114,-71.1040552,Western Ave,central,0.05
42.3727618,-71.1097379,42.371124,-71.110808,Ellery St,harvard,0.01
42.375871,-71.129272,42.3756056,-71.1282165,Foster St,harvard,0.01
42.3739635,-71.1326003,42.3741966,-71.1321045,Memorial Dr,harvard,0.01
42.385221,-71.126771,42.385398,-71.1263639,Huron Ave,porter,0.01
42.3652049,-71.1047669,42.3655671,-71.103985,River St,central,0.01
42.3688456,-71.1177585,42.3692122,-71.1173602,John W. Weeks Bridge,harvard,0.01
42.3645342,-71.0783486,42.3650926,-71.0827615,Linskey Way,kendall,0.01
42.3629697,-71.0819568,42.3630685,-71.0823604,Broad Canal Walk,kendall,0.01
42.3662004,-71.103307,42.3655671,-71.103985,Prospect St,central,0.01
42.3711808,-71.1346881,42.3710762,-71.1345502,Eliot Bridge,harvard,0.01
42.398465,-71.1413584,42.3989641,-71.1409284,Alewife Brook Pkwy,alewife,0.01
42.366306,-71.1160507,42.3691478,-71.117424,John W. Weeks Bridge,harvard,0.01
42.356124,-71.1140086,42.3562856,-71.1142161,Memorial Dr,central,0.01
42.3663176,-71.0881201,42.3642128,-71.0894887,Galileo Galilei Way,kendall,0.01
42.3957879,-71.1429241,42.3946617,-71.1423892,Alewife Station Access Rd,alewife,0.01
42.3769804,-71.1431718,42.3777175,-71.1429021,Larchwood Dr,harvard,0.01
42.3770774,-71.1527833,42.3772036,-71.1519015,St Sauveur Ct,alewife,0.01
42.3650485,-71.1072198,42.3656114,-71.1040552,Western Ave,central,0.01
42.3576698,-71.0911464,42.3586818,-71.087905,Memorial Dr,kendall,0.01
42.3787605,-71.1245078,42.3783692,-71.1237481,Concord Ave,harvard,0.01
42.3804528,-71.1326764,42.3807586,-71.1318413,Hemlock Rd,harvard,0.01
42.3540998,-71.1112221,42.3544298,-71.1104328,Boston Univ Bridge,central,0.01
42.3626224,-71.0899489,42.3627491,-71.0898633,Vassar St,kendall,0.01
42.3787505,-71.1474395,42.3799709,-71.1445372,Huron Ave,alewife,0.02
42.3732442,-71.0970897,42.3733872,-71.0981542,Cambridge St,central,0.03
42.3893953,-71.127814,42.3879688,-71.12136,Richdale Ave,porter,0.01
42.3812277,-71.1383327,42.3811641,-71.1387872,Huron Ave,alewife,0.09
42.3825891,-71.1182528,42.3825981,-71.1195716,Sacramento St,porter,0.01
42.3742316,-71.1047258,42.3716128,-71.106838,Highland Ave,central,0.1
42.3635686,-71.1096861,42.3655671,-71.103985,River St,central,0.01
42.3824145,-71.125874,42.3848325,-71.1193304,Linnaean St,porter,0.01
42.3640908,-71.087535,42.3639966,-71.0873125,Broadway,kendall,0.01
42.3636418,-71.0897934,42.3627674,-71.090021,Galileo Galilei Way,kendall,0.01
42.3897617,-71.1244233,42.3913401,-71.1232916,Walden St,porter,0.03
42.3791685,-71.108947,42.3778979,-71.1081355,Holden St,harvard,0.03
42.3714695,-71.1336208,42.3719482,-71.1346369,Eliot Bridge,harvard,0.01
42.3776693,-71.1302076,42.3778418,-71.130187,Sparks St,harvard,0.01
42.3833201,-71.1292375,42.3831157,-71.1288013,Gray Gardens W,porter,0.01
42.3893373,-71.1441258,42.3891706,-71.1441156,Wheeler St,alewife,0.01
42.3957871,-71.1314912,42.3965925,-71.1292664,Dudley St,davis,0.01
42.3900245,-71.1251653,42.3897617,-71.1244233,Mead St,porter,0.01
42.3704132,-71.0935212,42.3707978,-71.0933955,Webster Ave,central,0.01
42.3838594,-71.1227951,42.3848325,-71.1193304,Linnaean St,porter,0.02
42.3643333,-71.0880936,42.3639966,-71.0873125,Broadway,kendall,0.02
42.3672085,-71.1066849,42.3654837,-71.103841,Massachusetts Ave,central,0.01
42.4010172,-71.1338824,42.4002057,-71.1345055,Newman St,alewife,0.01
42.378906,-71.1483499,42.3789258,-71.1485211,Huron Ave,alewife,0.56
42.3770659,-71.124278,42.376242,-71.1235535,Phillips Pl,harvard,0.08
42.3856182,-71.120303,42.3855631,-71.1193848,Lancaster St,porter,0.01
42.3946028,-71.1421392,42.3946255,-71.1413779,Cambridge Park Dr,alewife,0.01
42.3643296,-71.0780621,42.3623298,-71.0788609,Edwin H Land Blvd,kendall,0.01
42.3796589,-71.1096168,42.379607,-71.109496,Bryant St,harvard,0.01
42.3654805,-71.0767206,42.3649154,-71.0772916,Edwin H Land Blvd,kendall,0.01
42.3847295,-71.133093,42.3871503,-71.128268,Walden St,porter,0.01
42.3898074,-71.1490455,42.3886414,-71.1436807,Concord Ave,alewife,0.01
42.3975367,-71.1417693,42.395041,-71.140628,Alewife Brook Pkwy,alewife,0.01
42.3653637,-71.0960853,42.3648613,-71.0962564,Windsor St,central,0.01
42.3696242,-71.0662988,42.3701792,-71.0688373,N Bank Bridge,kendall,0.01
42.361887,-71.1134769,42.3622704,-71.1135371,Putnam Ave,central,0.01
42.373493,-71.1233037,42.372885,-71.1213966,Mt Auburn St,harvard,0.01
42.3646609,-71.0892029,42.3639097,-71.0873928,Broadway,kendall,0.01
42.3775346,-71.1256296,42.3770659,-71.124278,St Johns Rd,harvard,0.01
42.3838326,-71.1258817,42.3839481,-71.1255158,Robinson St,porter,0.01
42.3669438,-71.1000818,42.3644325,-71.1020946,Norfolk St,central,0.02
42.3714056,-71.1338081,42.3719482,-71.1346369,Memorial Dr,harvard,0.01
42.365225,-71.1049312,42.3651885,-71.1048687,Green St,central,0.01
42.3871503,-71.128268,42.3867107,-71.1271374,Raymond St,porter,0.44
42.3607892,-71.1120357,42.3640226,-71.1083014,Pleasant St,central,0.05
42.3716775,-71.1391465,42.3716224,-71.1400685,Shady Hill Rd,harvard,0.01
42.3572138,-71.0925859,42.357384,-71.0926831,Massachusetts Ave,kendall,0.01
42.3960465,-71.1430359,42.3964321,-71.1432036,Alewife Station Access Rd,alewife,0.01
42.3812536,-71.144495,42.3849777,-71.1414246,Fresh Pond Pkwy,alewife,0.01
42.367727,-71.0909437,42.3663022,-71.0917948,Cardinal Medeiros Ave,kendall,0.07
42.3994994,-71.1379093,42.399493,-71.1380254,Columbus Ave,alewife,0.01
42.3660388,-71.0954161,42.3679677,-71.100818,Harvard St,central,0.01
42.3651109,-71.0770886,42.3649154,-71.0772916,Edwin H Land Blvd,kendall,0.01
42.3568249,-71.0962918,42.3571043,-71.0954583,Amherst Alley,kendall,0.01
42.3832365,-71.1289794,42.3831157,-71.1288013,Gray Gardens W,porter,0.01
42.3726741,-71.1181571,42.3731061,-71.1179048,Holyoke St,harvard,0.01
42.3710762,-71.1345502,42.3719482,-71.1346369,Eliot Bridge,harvard,0.81
42.3682981,-71.0805644,42.3626247,-71.0843649,Third St,kendall,0.05
42.3979051,-71.1467036,42.3978599,-71.1467523,Acorn Park Dr,alewife,0.01
42.3903308,-71.1418595,42.3939749,-71.1404823,Alewife Brook Pkwy,alewife,0.19
42.393651,-71.1243707,42.3953344,-71.1218694,Chester St,davis,0.01
42.3660578,-71.106329,42.365263,-71.1049964,Green St,central,0.01
42.3725025,-71.1383675,42.37252,-71.1382239,Coolidge Hill,harvard,0.01
42.3829843,-71.1339727,42.3833174,-71.1346734,Saville St,porter,0.01
42.3773116,-71.1437823,42.3772937,-71.144135,Meadow Way,alewife,0.01
42.4004308,-71.13521,42.400494,-71.1351684,Magoun St,alewife,0.01
42.3755821,-71.1143046,42.3758407,-71.1142528,Quincy St,harvard,0.01
42.3622202,-71.1053143,42.3647021,-71.1025516,Pearl St,central,0.01
42.3706509,-71.1192594,42.3709978,-71.1191617,Mill St,harvard,0.01
42.3654709,-71.1027245,42.3650836,-71.1031749,Essex St,central,0.01
42.3840267,-71.1362643,42.3845951,-71.1357947,Fayerweather St,alewife,0.06
42.378882,-71.150497,42.3791867,-71.1500917,Fountain Terrace,alewife,0.01
42.3863707,-71.1343156,42.3862566,-71.1339734,Garden St,alewife,0.01
42.3860266,-71.1251413,42.3867968,-71.1256015,Avon Hill St,porter,0.01
42.370764,-71.0715749,42.3714755,-71.0753335,North Point Blvd,kendall,0.01
42.3696609,-71.0922206,42.3697677,-71.0925633,York St,kendall,0.01
42.3697408,-71.113375,42.3703582,-71.1133199,Putnam Ave,harvard,0.01
42.3615281,-71.0843201,42.3622011,-71.08421,Wadsworth St,kendall,0.01
42.3870002,-71.1409316,42.3871268,-71.1409644,Bay State Rd,alewife,0.01
42.3642813,-71.0964698,42.3632079,-71.0967089,Windsor St,central,0.01
42.3751038,-71.1049728,42.3742842,-71.1051504,Camelia Ave,central,0.01
42.3973602,-71.1445642,42.3976669,-71.1436366,Alewife Station Access Rd,alewife,0.01
42.3690747,-71.1349495,42.3710762,-71.1345502,Greenough Blvd,harvard,0.01
42.3683134,-71.0861016,42.368246,-71.0855884,Charles St,kendall,0.01
42.3697755,-71.0866123,42.3696032,-71.0852745,Spring St,kendall,0.01
42.3711386,-71.0767145,42.371646,-71.0779477,MA-28 S,kendall,0.01
42.3759401,-71.1429535,42.3757341,-71.1428648,Fresh Pond Ln,harvard,0.01
42.3930524,-71.1350318,42.3936191,-71.1351878,Jefferson Park,alewife,0.01
42.3617911,-71.0915107,42.3627491,-71.0898633,Vassar St,kendall,0.01
42.3780692,-71.1235049,42.3751387,-71.119148,Garden St,harvard,0.01
42.3904212,-71.133567,42.3902715,-71.1326959,Bellis Cir,alewife,0.01
42.3675701,-71.0985728,42.3672504,-71.0987497,Elm St,central,0.01
42.3573756,-71.1080122,42.3639944,-71.1013648,Brookline St,central,0.2
42.3617543,-71.0795471,42.361771,-71.0797678,Longfellow Bridge,kendall,0.01
42.3984169,-71.1303066,42.3979766,-71.129619,Fair Oaks St,davis,0.01
42.3867097,-71.1412309,42.3873565,-71.1421144,Concord Ave,alewife,0.13
42.3549575,-71.1083364,42.3609097,-71.1017915,Sidney St,central,0.01
42.3704578,-71.1219025,42.37342,-71.1195063,John F. Kennedy St,harvard,0.01
42.3707452,-71.1151833,42.3716331,-71.1176623,Mt Auburn St,harvard,0.08
42.3995628,-71.1392948,42.3988423,-71.140375,Seagrave Rd,alewife,0.01
42.3972078,-71.1307846,42.3974464,-71.130226,Harvey St,davis,0.01
42.383245,-71.1292536,42.3845315,-71.1258521,Gray Gardens W,porter,0.01
42.3693295,-71.1046797,42.368976,-71.1036774,Harvard St,central,0.01
42.3691705,-71.0819708,42.3678279,-71.0822874,Sciarappa St,kendall,0.01
42.3759413,-71.126676,42.3764218,-71.1264557,Longfellow Park,harvard,0.01
42.3629367,-71.0783173,42.3629922,-71.0787111,Broad Canal Walk,kendall,0.09
42.3822323,-71.1226705,42.3833643,-71.119623,Martin St,porter,0.01
42.3736027,-71.1232388,42.374278,-71.1217698,Story St,harvard,0.01
42.3712944,-71.0875482,42.3712294,-71.0870603,Otis St,kendall,0.01
42.3566746,-71.103777,42.3570118,-71.1043704,Reardon St,central,0.01
42.3728446,-71.1180575,42.3731061,-71.1179048,Holyoke St,harvard,0.01
42.3796386,-71.1525191,42.3800479,-71.1524471,Cushing St,alewife,0.01
42.3683104,-71.0928618,42.3668117,-71.0924075,Webster Ave,kendall,0.01
42.3608672,-71.1067964,42.3647021,-71.1025516,Pearl St,central,0.01
42.3703899,-71.1182687,42.3706408,-71.1192468,Mill St,harvard,0.01
42.3843276,-71.1156723,42.3843253,-71.116092,Prentiss St,porter,0.01
42.3762265,-71.1315035,42.3756056,-71.1282165,Foster St,harvard,0.01
42.3703313,-71.0755082,42.3710199,-71.0798451,Cambridge St,kendall,0.01
42.376317,-71.1260061,42.3732049,-71.1207696,Brattle St,harvard,0.01
42.3757557,-71.1194079,42.3733848,-71.1186191,Massachusetts Ave,harvard,0.01
42.3803435,-71.1140983,42.3800152,-71.1151896,Gorham St,harvard,0.01
42.3985347,-71.1351968,42.3985032,-71.1352535,Magoun St,alewife,0.01
42.3702584,-71.1076809,42.3700303,-71.1068748,Harvard St,central,0.01
42.3836822,-71.1391075,42.3844153,-71.1411927,Vassal Ln,alewife,0.01
42.388166,-71.1195694,42.3881936,-71.1193282,Upland Rd,porter,0.01
42.3875934,-71.1228533,42.3881936,-71.1193282,Upland Rd,porter,0.01
42.3680098,-71.109187,42.3683792,-71.1087841,Hancock St,central,0.01
42.37612,-71.1108468,42.375715,-71.110943,Irving St,harvard,0.01
42.3825294,-71.1355585,42.3871503,-71.128268,Walden St,porter,0.05
42.3815268,-71.1321941,42.3847805,-71.1277976,Huron Ave,porter,0.01
42.3798601,-71.1396476,42.3843422,-71.1410898,Lakeview Ave,alewife,0.01
42.3679237,-71.0994158,42.3682102,-71.1002544,Harvard St,central,0.1
42.3747666,-71.1123104,42.374861,-71.1128789,Broadway,harvard,0.01
42.3628754,-71.0782644,42.3628517,-71.0783116,Cambridge Pkwy,kendall,0.01
42.3862112,-71.136545,42.3874592,-71.1383258,Field St,alewife,0.05
42.3662282,-71.1005972,42.3644325,-71.1020946,Norfolk St,central,0.02
42.3707636,-71.1046875,42.3700717,-71.1029309,Broadway,central,0.18
42.3642884,-71.1162605,42.3643097,-71.1160607,Western Ave,harvard,0.01
42.3609263,-71.0881978,42.3626028,-71.0881133,Ames St,kendall,0.01
42.3947463,-71.140605,42.3947202,-71.1412616,Cambridge Park Dr,alewife,0.01
42.354853,-71.1003269,42.3567075,-71.0947382,Memorial Dr,central,0.01
42.3975483,-71.1420251,42.3972212,-71.1413056,Concord Turnpike,alewife,0.01
42.3665008,-71.1003933,42.3644325,-71.1020946,Norfolk St,central,0.06
42.3641941,-71.0842871,42.3638393,-71.0834749,Potter St,kendall,0.01
42.3666773,-71.1428663,42.3749391,-71.1397404,Coolidge Ave,harvard,0.01
42.3538098,-71.1103769,42.3539069,-71.1103554,Boston Univ Bridge,central,0.01
42.3918609,-71.1478503,42.3896214,-71.1481302,Moulton St,alewife,0.01
42.3988243,-71.1286664,42.397953,-71.1267185,Tannery Brook Row,davis,0.05
42.378537,-71.1321981,42.3789273,-71.1308399,Brewster St,harvard,0.01
42.3721047,-71.0882983,42.3719239,-71.0868792,Cambridge St,kendall,0.03
42.3792397,-71.1327212,42.3795721,-71.1312919,Highland St,harvard,0.01
42.3729111,-71.1343849,42.3732458,-71.1337636,Memorial Dr,harvard,0.01
42.3754612,-71.1184953,42.3733848,-71.1186191,Massachusetts Ave,harvard,0.01
42.377158,-71.1225728,42.3769878,-71.1225591,Garden St,harvard,0.01
42.3626568,-71.0844361,42.3625462,-71.0842481,Broadway,kendall,0.01
42.3603216,-71.0951886,42.3601382,-71.0948792,Massachusetts Ave,kendall,0.01
42.3574445,-71.1069369,42.3577499,-71.1066145,Peters St,central,0.01
42.3767242,-71.1436249,42.3777175,-71.1429021,Larchwood Dr,harvard,0.01
42.3978166,-71.1490729,42.3976669,-71.1436366,Acorn Park Dr,alewife,0.01
42.3573955,-71.1038781,42.3574293,-71.1036933,Waverly St,central,0.01
42.3755536,-71.1480885,42.3756964,-71.1481067,Homer Ave,alewife,0.01
42.3545457,-71.1111286,42.3544298,-71.1104328,Boston Univ Bridge,central,0.01
42.3648227,-71.1059468,42.3655671,-71.103985,River St,central,0.01
42.3608132,-71.0824136,42.3610476,-71.0817498,Memorial Dr,kendall,0.02
42.3760719,-71.1448968,42.3766939,-71.1448108,Old Dee Rd,harvard,0.01
42.3711287,-71.1339818,42.3710762,-71.1345502,Eliot Bridge,harvard,0.01
42.3676725,-71.081092,42.3626247,-71.0843649,Third St,kendall,0.23
42.3607741,-71.0825351,42.3610476,-71.0817498,Memorial Dr,kendall,0.01
42.380654,-71.1207875,42.3808503,-71.1198812,Langdon St,harvard,0.01
42.3738758,-71.1388826,42.3741072,-71.1388447,Coolidge Hill Rd,harvard,0.01
42.3827104,-71.1273874,42.382063,-71.1267338,Garden St,porter,0.02
42.3983346,-71.1535823,42.3976669,-71.1436366,Acorn Park Dr,alewife,0.01
42.3864135,-71.1602378,42.3908286,-71.1568551,Blanchard Rd,alewife,0.01
42.3749362,-71.1397162,42.372885,-71.1213966,Mt Auburn St,harvard,0.01
42.373055,-71.0864747,42.3723671,-71.0846167,Gore St/Medford St,kendall,0.01
42.3781005,-71.1269995,42.3786564,-71.1261795,Berkeley Pl,harvard,0.01
42.3646764,-71.1115685,42.3656114,-71.1040552,Western Ave,central,0.01
42.3881099,-71.1193036,42.3886815,-71.1194648,Massachusetts Ave,porter,0.01
42.3624113,-71.1056279,42.3630668,-71.1067177,Cottage St,central,0.01
42.3774151,-71.1540327,42.3777518,-71.1540176,May St/St Sauveur Ct,alewife,0.01
42.3729807,-71.134768,42.3741966,-71.1321045,Memorial Dr,harvard,0.01
42.3661941,-71.0859858,42.3639966,-71.0873125,Pedestrian Walk,kendall,0.66
42.3939192,-71.1418502,42.3946015,-71.1421819,Cambridge Park Pl,alewife,0.01
42.3789622,-71.1550304,42.3783026,-71.1553311,Oxford Ave,alewife,0.03
42.3684429,-71.0943811,42.3687645,-71.0947964,Hampshire St,central,0.01
42.3574743,-71.1032881,42.357683,-71.1036988,Waverly St,central,0.01
42.3636682,-71.0865142,42.3635254,-71.0861647,Broadway,kendall,0.01
42.3786904,-71.1120344,42.3774579,-71.1116686,Francis Ave,harvard,0.01
42.390126,-71.1318419,42.3902715,-71.1326959,Bolton St,alewife,0.03
42.3694777,-71.0706827,42.3692924,-71.0707068,Museum Way,kendall,0.42
42.3697368,-71.1123278,42.3698283,-71.1125776,Massachusetts Ave,harvard,0.01
42.363843,-71.1088422,42.3655671,-71.103985,River St,central,0.02
42.3813645,-71.1292736,42.3811381,-71.1288732,Concord Ave,porter,0.01
42.374855,-71.1223479,42.3732049,-71.1207696,Brattle St,harvard,0.03
42.3867059,-71.1405933,42.3867905,-71.1408045,Concord Ave,alewife,0.01
42.3792216,-71.1378022,42.3768157,-71.1373086,Fayerweather St,harvard,0.04
42.398564,-71.13609,42.3988798,-71.1409232,Whittemore Ave,alewife,0.01
42.3848639,-71.1412534,42.3850164,-71.1416539,Concord Ave,alewife,0.05
42.359778,-71.0874942,42.3600091,-71.087638,Ames St,kendall,0.02
42.3809748,-71.1229308,42.3817369,-71.1196856,Shepard St,porter,0.02
42.3727253,-71.0906076,42.3724087,-71.0906765,Harding St,kendall,0.01
42.3884346,-71.143795,42.388708,-71.1434358,Concord Ave,alewife,0.01
42.3780529,-71.1460013,42.3786149,-71.1460386,Larchwood Dr,alewife,0.01
42.3986995,-71.1536576,42.3976669,-71.1436366,Acorn Park Dr,alewife,0.01
42.3616099,-71.0785043,42.3622883,-71.0783975,Edwin H Land Blvd,kendall,0.01
42.362315,-71.0836509,42.3626242,-71.0841828,Broadway/Main St,kendall,0.01
42.3742826,-71.1254691,42.372885,-71.1213966,Mt Auburn St,harvard,0.07
42.3551221,-71.1050236,42.3551537,-71.1050313,Vassar St,central,0.01
42.3622361,-71.0837165,42.3625462,-71.0842481,Broadway,kendall,0.01
42.3621741,-71.0835394,42.3625462,-71.0842481,Broadway,kendall,0.01
42.3834458,-71.1315411,42.3829276,-71.1304083,Kelley St,porter,0.01
42.3858776,-71.1318038,42.3871503,-71.128268,Walden St,porter,0.01
42.3671276,-71.0924878,42.3668117,-71.0924075,Webster Ave,kendall,0.01
42.3734129,-71.1399153,42.3749391,-71.1397404,Coolidge Ave,harvard,0.01
42.3760161,-71.1243628,42.3759381,-71.1244587,Mason St,harvard,0.01
42.3891957,-71.1461764,42.3886414,-71.1436807,Concord Ave,alewife,0.01
42.3710066,-71.1402022,42.3749391,-71.1397404,Coolidge Ave,harvard,0.01
42.3815726,-71.1163203,42.3862003,-71.1161706,Oxford St,porter,0.08
42.377226,-71.1239594,42.3776453,-71.1231611,Berkeley St,harvard,0.16
42.3705769,-71.0762068,42.3710199,-71.0798451,Cambridge St,kendall,0.01
42.369481,-71.0706392,42.3694777,-71.0706827,Education St,kendall,0.01
42.3763339,-71.1482016,42.3756964,-71.1481067,Homer Ave,alewife,0.01
42.3550234,-71.099012,42.3550597,-71.0988025,Memorial Dr,central,0.01
42.3611052,-71.1079984,42.3614328,-71.1085453,McTernan St,central,0.01
42.3676209,-71.0942761,42.3673326,-71.0946434,Bristol St,central,0.01
42.3898215,-71.1215243,42.3896293,-71.1212353,Porter Cir,porter,0.01
42.3919685,-71.1480058,42.3896214,-71.1481302,Moulton St,alewife,0.01
42.3670739,-71.0891775,42.3663255,-71.0879899,Binney St,kendall,0.01
42.3959648,-71.147897,42.3962502,-71.1441494,Fitchburg Cutoff Bikepath,alewife,0.01
42.3726954,-71.1164193,42.3733848,-71.1186191,Massachusetts Ave,harvard,0.65
42.3715244,-71.0752805,42.3714755,-71.0753335,North Point Blvd,kendall,0.01
42.3962823,-71.1431385,42.3964321,-71.1432036,Alewife Station Access Rd,alewife,0.01
42.3962627,-71.1441128,42.3965709,-71.1430904,Fitchburg Cutoff,alewife,0.01
42.4005728,-71.1351104,42.400494,-71.1351684,Gladstone St,alewife,0.01
42.3945337,-71.140694,42.3946477,-71.1409535,Cambridge Park Dr,alewife,0.01
42.3756044,-71.1458912,42.3784852,-71.1471676,Aberdeen Ave,alewife,0.01
42.3884743,-71.1189248,42.3886508,-71.1194942,Somerville Ave,porter,0.01
42.3567704,-71.0942938,42.3590268,-71.0878005,Memorial Dr,kendall,0.01
42.3976669,-71.1436366,42.3965329,-71.1432338,Alewife Station Access Rd,alewife,0.51
42.3739572,-71.1277398,42.3733898,-71.1267441,Memorial Dr,harvard,0.01
42.3849381,-71.1375196,42.3852544,-71.1372732,Alpine St,alewife,0.01
42.356863,-71.0938384,42.3590268,-71.0878005,Memorial Dr,kendall,0.01
42.3711836,-71.076805,42.371646,-71.0779477,MA-28 S,kendall,0.01
42.3719205,-71.0708886,42.3691842,-71.0732545,Charlestown Ave/Gilmore Bridge,kendall,0.01
42.3805319,-71.1446215,42.3849777,-71.1414246,Fresh Pond Pkwy,alewife,0.01
42.361912,-71.0975613,42.3618261,-71.0977033,Front St,central,0.01
42.3648857,-71.0896459,42.3639097,-71.0873928,Broadway,kendall,0.01
42.376739,-71.1299863,42.3776748,-71.1292919,Mercer Cir,harvard,0.07
42.3705543,-71.1061264,42.3706705,-71.1064816,Hancock Park,central,0.01
42.390904,-71.1414451,42.3939749,-71.1404823,Alewife Brook Pkwy,alewife,0.01
42.3753788,-71.126027,42.3762351,-71.1256545,Hawthorn St,harvard,0.01
42.3818168,-71.138156,42.3834514,-71.1377488,Chilton St,alewife,0.01
42.3780842,-71.1403628,42.3763508,-71.1397609,Lexington Ave,harvard,0.01
42.3902454,-71.1424216,42.3901113,-71.1421846,Terminal Rd,alewife,0.01
42.3776205,-71.109438,42.3763208,-71.1156835,Kirkland St,harvard,0.01
42.3697501,-71.1162454,42.3699013,-71.1168195,Grant St,harvard,0.01
42.399425,-71.1397012,42.3988423,-71.140375,Seagrave Rd,alewife,0.01
42.3787517,-71.146228,42.378928,-71.1463742,Larchwood Dr,alewife,0.01
42.3577151,-71.0908918,42.3586818,-71.087905,Memorial Dr,kendall,0.01
42.3978386,-71.1483002,42.3976669,-71.1436366,Acorn Park Dr,alewife,0.01
42.3684449,-71.0919512,42.368105,-71.0921395,Berkshire St,kendall,0.01
42.367764,-71.1157143,42.3677709,-71.1163511,Flagg St,harvard,0.01
42.3616022,-71.1059922,42.3647021,-71.1025516,Pearl St,central,0.01
42.3974158,-71.1342976,42.3975858,-71.1369178,Harvey St,alewife,0.01
42.391425,-71.1400064,42.3904222,-71.1408422,Alewife Brook Pkwy,alewife,0.11
42.3732681,-71.1187156,42.3733436,-71.1185736,Dunster St,harvard,7.98
42.3799709,-71.1445372,42.3849777,-71.1414246,Fresh Pond Pkwy,alewife,0.68
42.3631774,-71.0999732,42.3654837,-71.103841,Massachusetts Ave,central,0.01
42.3829882,-71.1142648,42.383051,-71.1161584,Crescent St,porter,0.01
42.38308,-71.1281834,42.383242,-71.1280005,Madison St,porter,0.01
42.3718286,-71.0985231,42.3722128,-71.0989926,Hampshire St,central,0.01
42.3760968,-71.1450155,42.3766939,-71.1448108,Old Dee Rd,alewife,0.01
42.3742593,-71.1049497,42.3742316,-71.1047258,Cambridge St,central,0.01
42.3715164,-71.1091544,42.3691586,-71.1107379,Dana St,central,0.01
42.3638426,-71.1133836,42.3638774,-71.1129949,Ballord Pl,central,0.01
42.3565349,-71.0952429,42.3590268,-71.0878005,Memorial Dr,kendall,0.01
42.3868279,-71.1291704,42.3871503,-71.128268,Walden St,porter,0.07
42.3648564,-71.0926125,42.3638922,-71.0931728,Portland St,kendall,0.04
42.3659423,-71.0891115,42.3647784,-71.0894878,Galileo Galilei Way,kendall,0.01
42.3884747,-71.132521,42.3861826,-71.1309697,Sherman St,porter,0.01
42.3665374,-71.0935358,42.3663589,-71.0935048,Market St,kendall,0.01
42.3978352,-71.1419096,42.3970855,-71.1403405,Concord Turnpike,alewife,0.01
42.3672358,-71.1114156,42.367759,-71.1110947,Bay St,central,0.01
42.3767645,-71.1158674,42.3763208,-71.1156835,Oxford St,harvard,0.11
42.367184,-71.0956294,42.3674905,-71.0963891,Broadway,central,0.01
42.3710452,-71.1343333,42.3710762,-71.1345502,Eliot Bridge,harvard,0.01
42.3721892,-71.1345622,42.372863,-71.1344367,Memorial Dr,harvard,0.01
42.3707021,-71.0759738,42.3705626,-71.0760892,East St,kendall,0.01
42.3773282,-71.1227511,42.3772967,-71.1228604,Waterhouse St,harvard,0.01
42.36725,-71.101311,42.3650836,-71.1031749,Essex St,central,0.01
42.378361,-71.1144446,42.3773552,-71.114066,Divinity Ave,harvard,0.09
42.3768669,-71.1197707,42.3733848,-71.1186191,Massachusetts Ave,harvard,0.01
42.368059,-71.0907504,42.3663022,-71.0917948,Cardinal Medeiros Ave,kendall,0.01
42.3898947,-71.1261026,42.3917366,-71.123923,Cogswell Ave,porter,0.05
42.3836448,-71.1160924,42.3862003,-71.1161706,Oxford St,porter,0.02
42.3862003,-71.1161706,42.3869175,-71.1161694,Beacon St,porter,0.31
42.3787859,-71.1451889,42.3792483,-71.1443901,Fresh Pond Ln,alewife,0.35
42.3970583,-71.1299215,42.3973906,-71.1303017,Massachusetts Ave,davis,0.01
42.3653757,-71.0986488,42.366001,-71.1007514,Washington St,central,0.01
42.380345,-71.1140542,42.3802723,-71.1138008,Gorham St,harvard,0.01
42.380415,-71.1115083,42.3781373,-71.1107186,Irving St,harvard,0.01
42.3989641,-71.1409284,42.3970536,-71.1402762,Massachusetts 16/U.S. Highway 3/Alewife Brook Parkway,alewife,0.06
42.35838,-71.1048806,42.3591484,-71.1061583,Erie St,central,0.01
42.3734124,-71.1186499,42.3733848,-71.1186191,Massachusetts Ave,harvard,0.01
42.3934376,-71.1569796,42.3931005,-71.1579304,S Normandy Ave,alewife,0.01
42.3606413,-71.0829474,42.3610476,-71.0817498,Memorial Dr,kendall,0.01
42.3716594,-71.1244063,42.3721959,-71.1241081,University Rd,harvard,0.07
42.3799155,-71.1525081,42.3800479,-71.1524471,Cushing St,alewife,0.01
42.3879725,-71.143103,42.3881904,-71.1435006,Concord Ave,alewife,0.01
42.3798773,-71.1178098,42.3798922,-71.1180891,Everett St,harvard,0.01
42.3728695,-71.138119,42.3732345,-71.1389011,Coolidge Hill,harvard,0.01
42.3798692,-71.1091342,42.3781373,-71.1107186,Scott St,harvard,0.01
42.3675092,-71.0812656,42.3626247,-71.0843649,Third St,kendall,0.01
42.3994032,-71.1326841,42.3979813,-71.1308373,Massachusetts Ave,davis,0.02
42.357596,-71.102949,42.3574973,-71.1031511,Albany St,central,0.01
42.3734272,-71.095142,42.3730155,-71.0953218,Elm St,central,0.01
42.3728887,-71.1341854,42.3741966,-71.1321045,Memorial Dr,harvard,0.01
42.3776853,-71.1443122,42.3787859,-71.1451889,Fresh Pond Ln,alewife,0.01
42.3652735,-71.1399359,42.3679379,-71.1358904,Greenough Blvd,harvard,0.01
42.3820098,-71.1210463,42.3822382,-71.1197461,Hudson St,porter,0.02
42.3861886,-71.119321,42.3887168,-71.1196439,Massachusetts Ave,porter,0.02
42.3885302,-71.1191288,42.388542,-71.1190693,Somerville Ave,porter,0.01
42.3719962,-71.1201304,42.3717637,-71.1196278,Winthrop St,harvard,0.01
42.369768,-71.0898131,42.3663022,-71.0917948,Cardinal Medeiros Ave,kendall,0.07
42.362664,-71.100651,42.3634165,-71.1019284,Green St,central,0.01
42.3738921,-71.0977875,42.3655671,-71.103985,Prospect St,central,0.01
42.3790712,-71.1502262,42.3791867,-71.1500917,Fountain Terrace,alewife,0.01
42.3802562,-71.1341294,42.377428,-71.1333963,Appleton St,harvard,0.01
42.3799819,-71.1197556,42.379998,-71.1199791,Everett St,harvard,0.01
42.3771333,-71.1430874,42.3777175,-71.1429021,Larchwood Dr,alewife,0.01
42.3837617,-71.1394725,42.3844153,-71.1411927,Vassal Ln,alewife,0.01
42.3933678,-71.1571757,42.3931005,-71.1579304,S Normandy Ave,alewife,0.05
42.3769845,-71.1441115,42.3787859,-71.1451889,Fresh Pond Ln,alewife,0.01
42.3831967,-71.1291969,42.3845315,-71.1258521,Gray Gardens W,porter,0.01
42.3903105,-71.1184269,42.3894426,-71.1199964,Davenport St,porter,0.02
42.3630833,-71.1111204,42.3655671,-71.103985,River St,central,0.03
42.364532,-71.0885658,42.3639966,-71.0873125,Broadway,kendall,0.53
42.3727968,-71.1180854,42.3731061,-71.1179048,Holyoke St,harvard,0.01
42.3534972,-71.1105274,42.3539069,-71.1103554,Boston Univ Bridge,central,0.04
42.3707252,-71.0714579,42.3714755,-71.0753335,North Point Blvd,kendall,0.01
42.3951561,-71.1301523,42.3960556,-71.1286692,Norris St,davis,0.02
42.3674055,-71.1163383,42.3691478,-71.117424,John W. Weeks Bridge,harvard,0.01
42.3542917,-71.1047882,42.3547794,-71.1050644,Amesbury St,central,0.01
42.3615199,-71.078525,42.3622883,-71.0783975,Edwin H Land Blvd,kendall,0.01
42.3992784,-71.1388091,42.398743,-71.138785,Kassul Park,alewife,0.01
42.3821975,-71.1263536,42.3848325,-71.1193304,Linnaean St,porter,0.01
42.370954,-71.0849563,42.3662019,-71.086068,6th St,kendall,0.03
42.3657287,-71.0754494,42.3629214,-71.0781729,Cambridge Pkwy,kendall,0.01
42.3889107,-71.1184046,42.388542,-71.1190693,White St,porter,0.01
42.3806574,-71.1323997,42.3807586,-71.1318413,Hemlock Rd,porter,0.01
42.3966593,-71.1352983,42.3957072,-71.1352678,Jackson St,alewife,0.01
42.3609901,-71.0992871,42.3628727,-71.1024328,Franklin St,central,0.02
42.3573392,-71.1040081,42.3574293,-71.1036933,Waverly St,central,0.01
42.3732729,-71.1195732,42.37342,-71.1195063,John F. Kennedy St,harvard,0.01
42.3773792,-71.1540382,42.3777518,-71.1540176,May St/St Sauveur Ct,alewife,0.01
42.3693685,-71.069031,42.3692437,-71.069201,North Point Blvd,kendall,0.01
42.3770495,-71.1493102,42.3771189,-71.1493314,Holworthy Pl,alewife,0.01
42.4004911,-71.1364799,42.3989641,-71.1409284,Alewife Brook Pkwy,alewife,0.01
42.3788109,-71.1406194,42.3835896,-71.142315,Lexington Ave,alewife,0.01
42.3744455,-71.1231523,42.374855,-71.1223479,Hilliard St,harvard,0.02
42.377602,-71.1312294,42.3732049,-71.1207696,Brattle St,harvard,0.01
42.3629805,-71.082311,42.3633468,-71.0837907,Broad Canal Way,kendall,0.01
42.3610686,-71.0812429,42.3609293,-71.0815908,MA-3 S/MA-3A S,kendall,0.01
42.3661662,-71.0886568,42.3642128,-71.0894887,Galileo Galilei Way,kendall,0.01
42.3909726,-71.1572632,42.3886414,-71.1436807,Concord Ave,alewife,0.01
42.3932833,-71.1580098,42.3954398,-71.1586656,Blanchard Rd,alewife,0.01
42.3979322,-71.1332798,42.3956965,-71.1383441,Alewife Linear Park/Somerville Community Path,alewife,0.01
42.3722898,-71.0840877,42.3723671,-71.0846167,Gore St,kendall,0.02
42.3700776,-71.0651407,42.3697058,-71.0649093,Miller's River Littoral Way,kendall,0.01
42.3558649,-71.0994559,42.3571043,-71.0954583,Amherst Alley,central,0.01
42.381119,-71.128837,42.3811381,-71.1288732,Concord Ave,porter,0.01
42.3793936,-71.1086158,42.3791685,-71.108947,Shady Hill Square,harvard,0.01
42.3743775,-71.0963323,42.3732442,-71.0970897,Tremont St,central,0.01
42.3781953,-71.1549089,42.3781222,-71.1539797,Lawn St,alewife,0.01
42.3714103,-71.1335098,42.3710762,-71.1345502,Eliot Bridge,harvard,0.01
42.3741538,-71.1390364,42.3746985,-71.1381565,Coolidge Hill Rd,harvard,0.01
42.3823315,-71.1290384,42.3822818,-71.129092,Madison St,porter,0.01
42.366278,-71.1159388,42.369606,-71.1181555,Memorial Dr,harvard,0.01
42.394929,-71.1362737,42.3957432,-71.1362989,Clifton St,alewife,0.01
42.3536937,-71.1104766,42.3536879,-71.1104132,Boston Univ Bridge,central,0.01
42.3612756,-71.1160585,42.3614298,-71.1161027,Cambridge St,central,0.01
42.37548,-71.1354096,42.3749858,-71.1352515,Channing St,harvard,0.02
42.3978155,-71.1494271,42.3976669,-71.1436366,Acorn Park Dr,alewife,0.01
42.3681163,-71.0935612,42.367955,-71.0938,Bristol St,kendall,0.01
42.3985155,-71.1352113,42.3988798,-71.1409232,Whittemore Ave,alewife,0.01
42.3680132,-71.099353,42.3679237,-71.0994158,Norfolk St,central,0.01
42.3748786,-71.1392396,42.372885,-71.1213966,Mt Auburn St,harvard,0.03
42.3650597,-71.0773831,42.3649931,-71.0774278,Edwin H Land Blvd,kendall,0.01
42.37706,-71.1244224,42.3770659,-71.124278,St Johns Rd,harvard,0.01
42.360644,-71.1132601,42.3622704,-71.1135371,Putnam Ave,central,0.01
42.3844153,-71.1411927,42.3850164,-71.1416539,Concord Ave,alewife,0.54
42.39361,-71.153835,42.3934941,-71.1547077,Loomis St,alewife,0.01
42.3574756,-71.1034606,42.357683,-71.1036988,Waverly St,central,0.01
42.389062,-71.142922,42.3939749,-71.1404823,Alewife Brook Pkwy,alewife,0.01
42.383877,-71.1359453,42.3840267,-71.1362643,Saville St,alewife,0.01
42.3790825,-71.1309418,42.3778418,-71.130187,Sparks St,harvard,0.01
42.3630668,-71.1067177,42.3653108,-71.1042956,Magazine St,central,0.03
42.386845,-71.1253869,42.3881936,-71.1193282,Upland Rd,porter,0.02
42.364162,-71.0994873,42.365843,-71.1023139,Bishop Allen Dr,central,0.01
42.391539,-71.1349741,42.3929878,-71.135042,Jackson Pl,alewife,0.01
42.3761175,-71.1184776,42.3763571,-71.1190747,Cambridge St,harvard,0.01
42.392618,-71.1350504,42.3929878,-71.135042,Jackson Pl,alewife,0.01
42.3787718,-71.1364984,42.3790033,-71.1363559,Reservoir St,harvard,0.01
42.3628407,-71.0898406,42.3627491,-71.0898633,Galileo Galilei Way,kendall,0.01
42.3556653,-71.1043953,42.3560377,-71.1036598,Reardon St,central,0.29
42.3879866,-71.1257593,42.3889283,-71.1250403,Walden St,porter,0.01
42.3712916,-71.0938101,42.370975,-71.0939614,Windsor St,central,0.01
42.3624328,-71.0843303,42.3623933,-71.0844716,Main St,kendall,5.84
42.3764545,-71.1492349,42.3771189,-71.1493314,Holworthy Pl,alewife,0.01
42.3639374,-71.0871685,42.3639966,-71.0873125,Broadway,kendall,0.01
42.366172,-71.1159306,42.369606,-71.1181555,Memorial Dr,harvard,0.01
42.3697338,-71.1197431,42.3697225,-71.1225218,John F. Kennedy St,harvard,0.01
42.3697225,-71.1225218,42.37342,-71.1195063,John F. Kennedy St,harvard,0.24
42.3692753,-71.1345811,42.370195,-71.1343636,Greenough Blvd,harvard,0.01
42.38879,-71.1283375,42.3883365,-71.1254495,Hubbard Ave,porter,0.01
42.3744921,-71.1306915,42.3733898,-71.1267441,Memorial Dr,harvard,0.01
42.3729013,-71.1082106,42.3708078,-71.1096223,Dana St,harvard,0.01
42.3696928,-71.0860088,42.3696032,-71.0852745,Spring St,kendall,0.01
42.3675069,-71.1162494,42.369606,-71.1181555,Memorial Dr,harvard,0.01
42.3691586,-71.1107379,42.3654837,-71.103841,Massachusetts Ave,central,0.07
42.3626027,-71.1125509,42.3655671,-71.103985,River St,central,0.02
42.3634453,-71.0783764,42.3629367,-71.0783173,Edwin H Land Blvd,kendall,0.01
42.3602756,-71.0972905,42.3608181,-71.0960318,Albany St,central,0.01
42.3872097,-71.1281038,42.3871503,-71.128268,Walden St,porter,0.01
42.3919689,-71.1240609,42.3886815,-71.1194648,Massachusetts Ave,porter,0.01
42.3771372,-71.1324185,42.3775278,-71.1324808,Hubbard Park Rd,harvard,0.01
42.3732907,-71.1186711,42.3733436,-71.1185736,Dunster St,harvard,0.01
42.3697552,-71.1222715,42.3697927,-71.1224694,Memorial Dr,harvard,0.01
42.3903641,-71.1268413,42.3898947,-71.1261026,Pemberton Ct,porter,0.03
42.37363,-71.1245404,42.3738833,-71.1243726,Gerry St,harvard,0.01
42.370837,-71.094682,42.3683374,-71.096088,Union St,central,0.02
42.3576253,-71.0915747,42.3590268,-71.0878005,Memorial Dr,kendall,0.01
42.3722213,-71.1148689,42.3724862,-71.115946,Harvard St,harvard,0.01
42.3918007,-71.1404572,42.3918181,-71.140558,Terminal Rd,alewife,0.01
42.3678754,-71.0983929,42.3672504,-71.0987497,Elm St,central,0.01
42.3737363,-71.0903623,42.3724087,-71.0906765,Harding St,kendall,0.01
42.3800479,-71.1524471,42.3789258,-71.1485211,Huron Ave,alewife,0.14
42.3773344,-71.1285913,42.3732049,-71.1207696,Brattle St,harvard,0.02
42.3740212,-71.1030628,42.3737254,-71.10083,Cambridge St,central,0.04
42.3555939,-71.1113066,42.3559916,-71.1120042,Granite St,central,0.01
42.3748279,-71.1144583,42.3746633,-71.1145106,Quincy St,harvard,0.13
42.3921236,-71.1495859,42.3919686,-71.1480866,Wilson Rd,alewife,0.01
42.358918,-71.1157582,42.3589307,-71.1156137,Memorial Dr,central,0.01
42.3685011,-71.08212,42.3678279,-71.0822874,Sciarappa St,kendall,0.01
42.3886816,-71.1326033,42.3934857,-71.132855,Sherman St,alewife,0.06
42.3701675,-71.134189,42.3702407,-71.13425,Greenough Blvd,harvard,0.14
42.3685879,-71.1135115,42.3703582,-71.1133199,Putnam Ave,harvard,0.01
42.3720003,-71.0874885,42.3719239,-71.0868792,Cambridge St,kendall,0.01
42.3718265,-71.0861308,42.3716527,-71.0847941,Cambridge St,kendall,0.01
42.3990765,-71.1402161,42.3988423,-71.140375,Seagrave Rd,alewife,0.01
42.3733872,-71.0981542,42.3655671,-71.103985,Prospect St,central,0.25
42.3832576,-71.1280251,42.3834354,-71.1283035,Garden St,porter,0.01
42.3666879,-71.0881586,42.366546,-71.0881975,Fulkerson St,kendall,0.01
42.3626596,-71.0821032,42.3621067,-71.0821343,Broad Canal Way,kendall,0.01
42.3907002,-71.1297626,42.3905912,-71.1290994,Pemberton St,porter,0.01
42.3946477,-71.1409535,42.3946307,-71.1412537,Cambridge Park Dr,alewife,0.08
42.370516,-71.095541,42.3703352,-71.0949657,Union Pl,central,0.01
42.3708925,-71.0999283,42.3655671,-71.103985,Prospect St,central,0.01
42.375535,-71.1269125,42.3764218,-71.1264557,Longfellow Park,harvard,0.03
42.3815622,-71.1156893,42.3815726,-71.1163203,Wendell St,porter,0.01
42.3616295,-71.0790628,42.3617083,-71.0798004,MA-3 S/MA-3A S,kendall,0.05
42.3547794,-71.1050644,42.3551537,-71.1050313,Vassar St,central,0.13
42.3719797,-71.078443,42.3724736,-71.0794097,MA-28 N,kendall,0.02
42.3730769,-71.1208734,42.3732049,-71.1207696,Brattle Square,harvard,0.01
42.3821901,-71.120246,42.3822382,-71.1197461,Hudson St,porter,0.01
42.363978,-71.1147568,42.3643936,-71.1148224,Blackstone St,central,0.01
42.3725795,-71.085214,42.3723671,-71.0846167,Gore St,kendall,0.01
42.3681546,-71.074025,42.3677566,-71.0743279,Cambridge Pkwy,kendall,0.01
42.3701882,-71.0990545,42.3688947,-71.099955,Tremont St,central,0.01
42.3703975,-71.0897703,42.3703138,-71.0895042,Marney St,kendall,0.01
42.3793603,-71.1111572,42.3781373,-71.1107186,Irving St,harvard,0.01
42.375311,-71.1514245,42.3754827,-71.1500344,Spruce Ave,alewife,0.02
42.3889292,-71.1326217,42.3934857,-71.132855,Sherman St,alewife,0.01
42.3810539,-71.1393546,42.380924,-71.1400231,Huron Ave,alewife,0.01
42.3656338,-71.0824579,42.3627026,-71.0842868,Third St,kendall,1.31
42.3578356,-71.0904259,42.3586818,-71.087905,Memorial Dr,kendall,0.01
42.3546948,-71.1026855,42.3548185,-71.1025809,Amherst Alley,central,0.04
42.3585624,-71.0878363,42.358938,-71.0880639,Memorial Dr,kendall,0.02
42.355221,-71.1063261,42.3566387,-71.1087945,Chestnut St,central,0.01
42.3791903,-71.1505934,42.3793652,-71.1505063,Fountain Terrace,alewife,0.01
42.3804453,-71.1530774,42.3789258,-71.1485211,Huron Ave,alewife,0.01
42.3963024,-71.1290833,42.3950629,-71.1276917,Massachusetts Ave,davis,0.01
42.3811864,-71.1116776,42.3805315,-71.1126512,Francis Ave,harvard,0.01
42.3686674,-71.1351425,42.3710762,-71.1345502,Greenough Blvd,harvard,0.01
42.3928937,-71.1350442,42.3929878,-71.135042,Jackson Pl,alewife,0.01
42.3626905,-71.0881052,42.3626028,-71.0881133,Ames St,kendall,0.01
42.3839263,-71.138357,42.3852544,-71.1372732,Alpine St,alewife,0.01
42.3693343,-71.0692744,42.3692437,-71.069201,North Point Blvd,kendall,0.01
42.3719482,-71.1346369,42.3741966,-71.1321045,Memorial Dr,harvard,1.27
42.3634165,-71.1019284,42.3639944,-71.1013648,Brookline St,central,0.08
42.3719669,-71.1185733,42.3731061,-71.1179048,Holyoke St,harvard,0.03
42.3687342,-71.1147006,42.3704873,-71.1144672,Banks St,harvard,0.02
42.3626901,-71.0845099,42.3625462,-71.0842481,Broadway,kendall,0.01
42.3927085,-71.1350486,42.3929878,-71.135042,Jackson Pl,alewife,0.01
42.3841018,-71.1404005,42.3844153,-71.1411927,Vassal Ln,alewife,0.01
42.3924576,-71.1247604,42.3926557,-71.1249808,Massachusetts Ave,davis,0.01
42.3886383,-71.1193352,42.3886508,-71.1194942,Somerville Ave,porter,0.01
42.3769143,-71.1114319,42.3771875,-71.1114805,Kirkland Rd,harvard,0.01
42.3814861,-71.134957,42.3814965,-71.132233,Huron Ave,harvard,0.07
42.3611913,-71.0927408,42.3627491,-71.0898633,Vassar St,kendall,0.01
42.3587856,-71.1140131,42.3591081,-71.1139911,right,central,0.02
42.3959722,-71.1468908,42.3962502,-71.1441494,Fitchburg Cutoff Bikepath,alewife,0.01
42.3706739,-71.1239191,42.3697927,-71.1224694,Memorial Dr,harvard,0.01
42.3789803,-71.1449359,42.3792483,-71.1443901,Fresh Pond Ln,alewife,0.01
42.3706742,-71.0993203,42.3709136,-71.0999136,Gardner Rd,central,0.01
42.3886356,-71.1438007,42.3886414,-71.1436807,Concord Ave,alewife,0.01
42.3652043,-71.093371,42.3648564,-71.0926125,Harvard St,kendall,0.01
42.3865264,-71.1300009,42.3871503,-71.128268,Walden St,porter,0.01
42.365843,-71.1023139,42.3650836,-71.1031749,Essex St,central,0.15
42.3697493,-71.0809226,42.3696484,-71.0801391,Thorndike St,kendall,0.01
42.3643846,-71.1160552,42.3643097,-71.1160607,Memorial Dr,central,0.01
42.3965819,-71.1293964,42.3965925,-71.1292664,Dudley St,davis,0.01
42.3742315,-71.1169427,42.3741678,-71.1169184,Massachusetts Ave,harvard,0.13
42.3775195,-71.1315701,42.3732049,-71.1207696,Brattle St,harvard,0.02
42.3733563,-71.1229501,42.372885,-71.1213966,Mt Auburn St,harvard,0.11
42.3627674,-71.090021,42.3624746,-71.0863171,Main St,kendall,0.06
42.3767364,-71.1471461,42.3769001,-71.1464695,Aberdeen Way,alewife,0.05
42.3988464,-71.1407321,42.3988798,-71.1409232,Whittemore Ave,alewife,0.01
42.3824007,-71.1323099,42.3828631,-71.1319524,Royal Ave,porter,0.01
42.3730726,-71.1210953,42.3732049,-71.1207696,Brattle Square,harvard,0.01
42.3787062,-71.1453443,42.3787859,-71.1451889,Larchwood Dr,alewife,0.01
42.3786162,-71.124225,42.3783692,-71.1237481,Concord Ave,harvard,0.01
42.3909474,-71.1570422,42.3886414,-71.1436807,Concord Ave,alewife,0.12
42.3985032,-71.1352535,42.3988798,-71.1409232,right,alewife,0.02
42.367945,-71.0856551,42.3662019,-71.086068,6th St,kendall,0.02
42.3916971,-71.1416028,42.3901113,-71.1421846,Terminal Rd,alewife,0.01
42.3911307,-71.1238668,42.3910084,-71.1235496,Houston Park,porter,0.01
42.3928846,-71.1274418,42.393702,-71.1261582,Haskell St,davis,0.01
42.3877798,-71.142653,42.388369,-71.143116,Concord Ave,alewife,0.01
42.3666441,-71.1073063,42.365263,-71.1049964,Green St,central,0.01
42.3901194,-71.1506129,42.3886414,-71.1436807,Concord Ave,alewife,0.01
42.367078,-71.0741413,42.3629214,-71.0781729,Cambridge Pkwy,kendall,0.01
42.3700438,-71.1069227,42.3700303,-71.1068748,Harvard St,central,0.01
42.3694603,-71.1050357,42.3674116,-71.1070055,Clinton St,central,0.02
42.3953574,-71.1405508,42.3947455,-71.1404753,Alewife Brook Pkwy,alewife,0.01
42.3729286,-71.1339711,42.3741966,-71.1321045,Memorial Dr,harvard,0.01
42.388542,-71.1190693,42.3886508,-71.1194942,Somerville Ave,porter,0.06
42.3776812,-71.1117349,42.3774579,-71.1116686,Francis Ave,harvard,0.01
42.3962346,-71.1442528,42.3962502,-71.1441494,Fitchburg Cutoff Bikepath,alewife,0.01
42.3908241,-71.1478064,42.3896214,-71.1481302,Moulton St,alewife,0.01
42.3851873,-71.123031,42.3855631,-71.1193848,Lancaster St,porter,0.02
42.3863357,-71.1214784,42.3865851,-71.1192803,Arlington St,porter,0.01
42.3846793,-71.120358,42.3848325,-71.1193304,Linnaean St,porter,0.01
42.3718154,-71.0709756,42.3691842,-71.0732545,Charlestown Ave/Gilmore Bridge,kendall,0.01
42.3666573,-71.1159867,42.369606,-71.1181555,Memorial Dr,harvard,0.01
42.3865559,-71.1402275,42.3867905,-71.1408045,Concord Ave,alewife,0.01
42.3632699,-71.0975176,42.3634789,-71.0998176,Main St,central,0.05
42.3965709,-71.1430904,42.3968427,-71.1413681,Alewife Linear Path,alewife,0.73
42.3782159,-71.1233421,42.3775113,-71.1221063,Concord Ave,harvard,0.04
42.3677425,-71.1362212,42.3679379,-71.1358904,Greenough Blvd,harvard,0.01
42.3955668,-71.1426733,42.3946736,-71.1422294,Alewife Station Access Rd,alewife,0.01
42.3727495,-71.0996498,42.3722128,-71.0989926,Hampshire St,central,0.02
42.3705626,-71.0760892,42.3710199,-71.0798451,Cambridge St,kendall,0.05
42.378714,-71.1090035,42.3785343,-71.1089389,Farrar St,harvard,0.01
42.3977268,-71.1287245,42.3968502,-71.1223386,Alewife Linear Park/Somerville Community Path,davis,0.02
42.3691307,-71.0694491,42.3691321,-71.0697018,Museum Way,kendall,0.18
42.390605,-71.1412873,42.390131,-71.1416581,Alewife Brook Pkwy,alewife,0.11
42.3861087,-71.1257587,42.3862561,-71.1252737,Bellevue Ave,porter,0.01
42.3590999,-71.1130503,42.3594151,-71.1135884,Chestnut St,central,0.01
42.3907937,-71.1428221,42.3901113,-71.1421846,Terminal Rd,alewife,0.01
42.3793645,-71.1298312,42.3802991,-71.1273312,Parker St,harvard,0.01
42.3774194,-71.118055,42.3768833,-71.1176968,Massachusetts Ave,harvard,0.01
42.3811381,-71.1288732,42.3815987,-71.128778,Concord Ave,porter,0.03
42.3623214,-71.0787878,42.3627396,-71.0821529,Broad Canal Way,kendall,0.05
42.3728437,-71.1029803,42.3707636,-71.1046875,Fayette St,central,0.01
42.3722527,-71.1400128,42.3749391,-71.1397404,Coolidge Ave,harvard,0.02
42.375881,-71.1324575,42.374824,-71.1325908,Gibson St,harvard,0.01
42.370741,-71.0833045,42.3659971,-71.084439,5th St,kendall,0.01
42.3806722,-71.114438,42.3800152,-71.1151896,Oxford St,harvard,0.01
42.3724931,-71.094358,42.3725944,-71.0946807,Harrington Terrace,central,0.01
42.3623933,-71.0844716,42.3624746,-71.0863171,Main St,kendall,5.84
42.3662335,-71.1135615,42.3655867,-71.1136781,Putnam Ave,central,0.02
42.3791078,-71.144748,42.3792483,-71.1443901,Fresh Pond Ln,alewife,0.01
42.3658742,-71.0780218,42.3663797,-71.0819949,Rogers St,kendall,0.02
42.3742792,-71.1318624,42.3741966,-71.1321045,Memorial Dr,harvard,0.01
42.3722862,-71.1373905,42.37252,-71.1382239,Coolidge Hill,harvard,0.01
42.3693531,-71.1147673,42.3693212,-71.1146493,Grant St,harvard,0.01
42.3692711,-71.0690354,42.3692437,-71.069201,North Point Blvd,kendall,0.01
42.3957396,-71.1335059,42.3956845,-71.1362957,Dudley St,alewife,0.01
42.3996556,-71.1382575,42.3988423,-71.140375,Seagrave Rd,alewife,0.01
42.3691355,-71.0928392,42.3690923,-71.0931031,Plymouth St,kendall,0.04
42.3801478,-71.1216443,42.3797822,-71.1215337,Langdon St,harvard,0.01
42.3776748,-71.1292919,42.3732049,-71.1207696,Brattle St,harvard,0.11
42.3934334,-71.1320438,42.3937671,-71.1371061,Rindge Ave,alewife,0.04
42.3767912,-71.1239788,42.376242,-71.1235535,Phillips Pl,harvard,0.01
42.3713054,-71.0724988,42.3714755,-71.0753335,East St,kendall,0.01
42.3722477,-71.0853601,42.3717498,-71.0855376,7th St,kendall,0.01
42.3946792,-71.1271196,42.3945537,-71.1269848,Massachusetts Ave,davis,0.01
42.3753183,-71.1452231,42.372885,-71.1213966,Mt Auburn St,harvard,0.02
42.3656261,-71.1439354,42.3679379,-71.1358904,Greenough Blvd,harvard,0.01
42.3896852,-71.1318083,42.390126,-71.1318419,Blair Pl,porter,0.01
42.3636802,-71.0819058,42.3639493,-71.0834123,Kendall St,kendall,0.01
42.3672605,-71.0987838,42.3679677,-71.100818,Harvard St,central,0.01
42.3888754,-71.1197236,42.3887168,-71.1196439,Massachusetts Ave,porter,0.01
42.3979252,-71.1530782,42.3976669,-71.1436366,Acorn Park Dr,alewife,0.01
42.372315,-71.1086165,42.3708078,-71.1096223,Dana St,harvard,0.01
42.3726632,-71.1215866,42.372885,-71.1213966,Eliot St,harvard,0.01
42.374433,-71.1263845,42.372885,-71.1213966,Mt Auburn St,harvard,0.01
42.39357,-71.128715,42.3946252,-71.1271982,Hollis St,davis,0.01
42.3599794,-71.1052914,42.3639944,-71.1013648,Brookline St,central,0.01
42.378159,-71.1509517,42.378171,-71.150863,Locust St,alewife,0.01
42.3569731,-71.0924655,42.357384,-71.0926831,Massachusetts Ave,kendall,0.01
42.3847358,-71.1143441,42.3869175,-71.1161694,Beacon St,porter,0.05
42.3758048,-71.1289998,42.3756056,-71.1282165,Foster St,harvard,0.02
42.3699617,-71.1167852,42.371364,-71.1159539,Dewolfe St,harvard,0.01
42.3785894,-71.1175688,42.3774194,-71.118055,Massachusetts Ave,harvard,0.01
42.369719,-71.1204099,42.3697225,-71.1225218,John F. Kennedy St,harvard,0.01
42.3886414,-71.1436807,42.3939739,-71.1406027,1st,alewife,1.58
42.3681201,-71.0740543,42.3677566,-71.0743279,Cambridge Pkwy,kendall,0.01
42.3775291,-71.1324332,42.3732049,-71.1207696,Brattle St,harvard,0.01
42.3630685,-71.0823604,42.3630181,-71.0823871,Broad Canal Way,kendall,0.75
42.367453,-71.0993679,42.3679677,-71.100818,Harvard St,central,0.01
42.3638051,-71.1089644,42.3655671,-71.103985,River St,central,0.01
42.3747949,-71.1321007,42.372885,-71.1213966,Mt Auburn St,harvard,0.01
42.3669863,-71.1094455,42.3651385,-71.1062018,Franklin St,central,0.01
42.3639401,-71.099102,42.365843,-71.1023139,Bishop Allen Dr,central,0.07
42.3865366,-71.141009,42.3867097,-71.1412309,Fresh Pond Pkwy,alewife,0.01
42.3613847,-71.1129759,42.362333,-71.1118555,Fairmont Ave,central,0.01
42.3934898,-71.1351726,42.3936191,-71.1351878,Jefferson Park,alewife,0.01
42.3640899,-71.0936341,42.3637618,-71.0917719,Washington St,kendall,0.01
42.3745042,-71.1301258,42.3733898,-71.1267441,Memorial Dr,harvard,0.01
42.3666096,-71.1430703,42.3749391,-71.1397404,Coolidge Ave,harvard,0.01
42.355933,-71.110951,42.3564054,-71.1104516,Rockingham St,central,0.01
42.3937327,-71.1286119,42.3946252,-71.1271982,Hollis St,davis,0.03
42.3978675,-71.1327749,42.3956965,-71.1383441,Alewife Linear Park/Somerville Community Path,alewife,0.01
42.3813031,-71.1373342,42.3845951,-71.1357947,Fayerweather St,alewife,0.02
42.3944856,-71.1254884,42.3964747,-71.1222955,Day St,davis,0.01
42.3679866,-71.074168,42.3677566,-71.0743279,Cambridge Pkwy,kendall,0.01
42.3779393,-71.145061,42.3781444,-71.1448112,Meadow Way,alewife,0.02
42.3735628,-71.1259809,42.3742826,-71.1254691,Ash St,harvard,0.01
42.3672022,-71.0936894,42.3671797,-71.0936579,Crossland St,kendall,0.01
42.3738887,-71.1020958,42.3737254,-71.10083,Cambridge St,central,0.01
42.3656766,-71.099688,42.366001,-71.1007514,Washington St,central,0.01
42.3589962,-71.1088124,42.3647021,-71.1025516,Pearl St,central,0.02
42.3594539,-71.0939555,42.3601382,-71.0948792,Massachusetts Ave,kendall,0.01
42.3824208,-71.1310038,42.3847805,-71.1277976,Huron Ave,porter,0.08
42.3539366,-71.103,42.354141,-71.1023643,Memorial Dr,central,0.01
42.3645205,-71.11615,42.3691478,-71.117424,John W. Weeks Bridge,harvard,0.01
42.372483,-71.0912172,42.3725619,-71.0918152,Cambridge St,kendall,0.01
42.3877926,-71.1242718,42.3872724,-71.1240131,Buena Vista Park,porter,0.01
42.3802723,-71.1138008,42.3794613,-71.1134859,Divinity Ave,harvard,0.01
42.362473,-71.0870865,42.3624016,-71.0861127,Main St,kendall,0.01
42.3755248,-71.1269813,42.3764218,-71.1264557,Longfellow Park,harvard,0.01
42.3789383,-71.1199875,42.3733848,-71.1186191,Massachusetts Ave,harvard,0.01
42.3674183,-71.0899211,42.3663255,-71.0879899,Binney St,kendall,0.01
42.3621159,-71.1011567,42.3628727,-71.1024328,Franklin St,central,0.01
42.3657143,-71.0767722,42.3663797,-71.0819949,Rogers St,kendall,0.01
42.379587,-71.1508032,42.3789258,-71.1485211,Huron Ave,alewife,0.01
42.3686816,-71.0720931,42.3691842,-71.0732545,MA-28 S,kendall,0.01
42.3803008,-71.1299022,42.3798885,-71.1283325,Healey St,harvard,0.01
42.3947852,-71.15022,42.3942463,-71.1503924,Smith Pl,alewife,0.01
42.3649682,-71.104519,42.365011,-71.1045906,Green St,central,0.01
42.3861911,-71.1225033,42.3865851,-71.1192803,Arlington St,porter,0.01
42.3760892,-71.1410584,42.3732049,-71.1207696,Brattle St,harvard,0.01
42.3601878,-71.0832796,42.3600902,-71.0836376,Memorial Dr,kendall,0.01
42.3763375,-71.140921,42.3762528,-71.1408611,Fresh Pond Pkwy,harvard,0.01
42.366778,-71.092367,42.3654283,-71.0911269,Hampshire St,kendall,0.01
42.3696822,-71.0953318,42.3683374,-71.096088,Union St,central,0.01
42.3768165,-71.1313207,42.3767516,-71.1303171,Hubbard Park Rd,harvard,0.01
42.3627401,-71.084371,42.3626242,-71.0841828,Broadway,kendall,0.01
42.3685185,-71.0990006,42.3679237,-71.0994158,Norfolk St,central,0.01
42.3814965,-71.132233,42.3778418,-71.130187,Sparks St,harvard,0.07
42.357472,-71.095228,42.3577025,-71.0945593,Amherst St,kendall,0.01
42.3781406,-71.1118712,42.3774579,-71.1116686,Francis Ave,harvard,0.01
42.3697542,-71.0740724,42.3692723,-71.0731469,MA-28 N,kendall,0.01
42.3741707,-71.1126135,42.3739629,-71.1127722,Felton St,harvard,0.01
42.3814965,-71.132233,42.3847805,-71.1277976,Huron Ave,porter,0.26
42.3895957,-71.131536,42.3894804,-71.1294357,Walden Square Rd,porter,0.01
42.372833,-71.1110941,42.3714527,-71.1120087,Trowbridge St,harvard,0.01
42.3543404,-71.1066926,42.3554833,-71.1043354,Vassar St,central,0.01
42.3636375,-71.082087,42.3639493,-71.0834123,Kendall St,kendall,0.02
42.3810414,-71.1326582,42.3811984,-71.1319938,Wyman Rd,porter,0.01
42.3591197,-71.0875195,42.3590268,-71.0878005,Memorial Dr,kendall,0.01
42.3974837,-71.135332,42.3975858,-71.1369178,Harvey St,alewife,0.01
42.3632108,-71.0783512,42.3629367,-71.0783173,Edwin H Land Blvd,kendall,0.01
42.3906519,-71.1187821,42.3903105,-71.1184269,Saginaw Ave,porter,0.01
42.3946217,-71.1408629,42.3946477,-71.1409535,Cambridge Park Dr,alewife,0.01
42.3757341,-71.1428648,42.3732049,-71.1207696,Brattle St,harvard,0.21
42.3866621,-71.140777,42.3868803,-71.1410293,Concord Ave,alewife,0.01
42.4006692,-71.1310514,42.3994032,-71.1326841,Clarendon Ave,davis,0.01
42.3818035,-71.1199443,42.3817369,-71.1196856,Shepard St,porter,0.01
42.393702,-71.1261582,42.3939456,-71.1264228,Massachusetts Ave,davis,0.09
42.380458,-71.1351689,42.3814861,-71.134957,Blakeslee St,harvard,0.01
42.369566,-71.1118616,42.3698283,-71.1125776,Massachusetts Ave,harvard,0.02
42.3550041,-71.1052748,42.3550259,-71.1052952,Amesbury St,central,0.01
42.4009393,-71.1359904,42.3989641,-71.1409284,Alewife Brook Pkwy,alewife,0.01
42.3568818,-71.1092132,42.3575355,-71.1103875,Chestnut St,central,0.01
42.3806349,-71.1324619,42.3807586,-71.1318413,Hemlock Rd,harvard,0.01
42.3633376,-71.0783682,42.3629367,-71.0783173,Edwin H Land Blvd,kendall,0.01
42.3800267,-71.1340723,42.377428,-71.1333963,Appleton St,harvard,0.01
42.3791631,-71.1446196,42.3792483,-71.1443901,Fresh Pond Ln,alewife,0.01
42.361782,-71.0939196,42.3628412,-71.0919304,Albany St,kendall,0.02
42.3807159,-71.1209319,42.3808503,-71.1198812,Langdon St,harvard,0.01
42.3727387,-71.1369576,42.37252,-71.1382239,Coolidge Hill,harvard,0.02
42.3756431,-71.1415217,42.3759804,-71.1416027,Brattle Cir,harvard,0.01
42.3832406,-71.1284348,42.3845315,-71.1258521,Gray Gardens W,porter,0.01
42.3568079,-71.1147701,42.3562856,-71.1142161,Memorial Dr,central,0.01
42.3666217,-71.1135434,42.3655867,-71.1136781,Putnam Ave,central,0.01
42.397811,-71.1250978,42.3974288,-71.1255848,Thorndike St,davis,0.05
42.379661,-71.1246832,42.3751387,-71.119148,Garden St,harvard,0.08
42.3941268,-71.1352073,42.3957072,-71.1352678,Jackson St,alewife,0.01
42.3710589,-71.134445,42.3710762,-71.1345502,Eliot Bridge,harvard,0.01
42.374566,-71.1251517,42.3742826,-71.1254691,Ash St,harvard,0.01
42.3775716,-71.1421513,42.3762528,-71.1408611,Fresh Pond Pkwy,harvard,0.01
42.3883304,-71.1224299,42.3883893,-71.1222284,Cambridge Terrace,porter,0.01
42.3772922,-71.1344021,42.3732049,-71.1207696,Brattle St,harvard,0.02
42.3973362,-71.1415147,42.3972212,-71.1413056,Concord Turnpike,alewife,0.01
42.3886073,-71.1236301,42.3886384,-71.1236197,Herbert St,porter,0.01
42.3602904,-71.082946,42.3600902,-71.0836376,Memorial Dr,kendall,0.01
42.3678279,-71.0822874,42.3676725,-71.081092,Charles St,kendall,0.18
42.3572428,-71.1150839,42.3577824,-71.1153344,Memorial Dr,central,0.01
42.3816984,-71.111776,42.382024,-71.110988,Museum St,porter,0.01
42.3777642,-71.1458743,42.3786149,-71.1460386,Larchwood Dr,alewife,0.01
42.3687929,-71.0790575,42.3689584,-71.0802945,Spring St,kendall,0.01
42.3598205,-71.0955292,42.3627491,-71.0898633,Vassar St,kendall,0.01
42.366849,-71.116144,42.3691478,-71.117424,John W. Weeks Bridge,harvard,0.01
42.3724862,-71.115946,42.3733848,-71.1186191,Massachusetts Ave,harvard,0.28
42.3646614,-71.0818254,42.3643036,-71.0819114,W Kendall St,kendall,0.01
42.3870892,-71.1416771,42.3873565,-71.1421144,Concord Ave,alewife,0.01
42.3615748,-71.0789544,42.3623298,-71.0788609,Edwin H Land Blvd,kendall,0.01
42.3755945,-71.1163572,42.3754939,-71.1163782,Massachusetts Ave,harvard,0.29
42.400732,-71.1354434,42.4009735,-71.1359487,Massachusetts Ave,alewife,0.01
42.3690724,-71.1146763,42.3704873,-71.1144672,Banks St,harvard,0.01
42.3691195,-71.0972189,42.3693481,-71.0975426,Market St,central,0.01
42.3787438,-71.147279,42.3799709,-71.1445372,Huron Ave,alewife,0.01
42.3582865,-71.1095917,42.3647021,-71.1025516,Pearl St,central,0.06
42.3830273,-71.1427578,42.3849777,-71.1414246,Fresh Pond Pkwy,alewife,0.01
42.3895999,-71.1302233,42.3894804,-71.1294357,Walden Square Rd,porter,0.01
42.392534,-71.1302,42.3925454,-71.130836,Wilson Ave,davis,0.01
42.3996397,-71.1380511,42.3988423,-71.140375,Seagrave Rd,alewife,0.01
42.3885888,-71.1431084,42.3939749,-71.1404823,Alewife Brook Pkwy,alewife,0.01
42.3705355,-71.1086601,42.3700303,-71.1068748,Harvard St,central,0.01
42.3963722,-71.1430488,42.396469,-71.1430689,Alewife Station Access Rd,alewife,0.01
42.3765075,-71.1440438,42.3787859,-71.1451889,Fresh Pond Ln,alewife,0.01
42.3761134,-71.1450285,42.3766939,-71.1448108,Old Dee Rd,alewife,0.01
42.4002057,-71.1345055,42.4009018,-71.1360361,Massachusetts Ave,alewife,0.02
42.3678058,-71.0742893,42.3677566,-71.0743279,Cambridge Pkwy,kendall,0.01
42.3723733,-71.1220823,42.3723208,-71.1218531,Bennett St,harvard,0.01
42.3716331,-71.1176623,42.3728852,-71.117128,Linden St,harvard,0.1
42.3758825,-71.1421004,42.3732049,-71.1207696,Brattle St,harvard,0.03
42.3946955,-71.1336195,42.3946988,-71.1331576,Olive Pl,alewife,0.01
42.3689686,-71.0823892,42.3689163,-71.0820314,4th St Pl,kendall,0.01
42.3781373,-71.1460323,42.3786149,-71.1460386,Larchwood Dr,alewife,0.01
42.3728852,-71.117128,42.3733848,-71.1186191,Massachusetts Ave,harvard,0.12
42.3668935,-71.0948678,42.3674905,-71.0963891,Broadway,central,0.01
42.3928626,-71.135045,42.3929878,-71.135042,Jackson Pl,alewife,0.01
42.3692122,-71.1173602,42.369606,-71.1181555,Memorial Dr,harvard,0.15
42.3650299,-71.1046182,42.365011,-71.1045906,Green St,central,0.01
42.3618269,-71.1057418,42.3647021,-71.1025516,Pearl St,central,0.01
42.3968066,-71.1410823,42.395041,-71.140628,Alewife Brook Pkwy,alewife,0.01
42.3677518,-71.1148907,42.3677493,-71.1147177,Flagg St,harvard,0.01
42.3978222,-71.1488747,42.3976669,-71.1436366,Acorn Park Dr,alewife,0.01
42.3810546,-71.1325855,42.3811984,-71.1319938,Wyman Rd,porter,0.01
42.3808083,-71.1333346,42.3808079,-71.1341478,Appleton Rd,porter,0.01
42.3716301,-71.0775607,42.3724736,-71.0794097,MA-28 N,kendall,0.01
42.3892198,-71.1226824,42.3891653,-71.1227283,Regent St,porter,0.01
42.3712952,-71.1150291,42.3715805,-71.1157124,Arrow St,harvard,0.01
42.3853189,-71.1181013,42.3853803,-71.1192672,Forest St,porter,0.01
42.3689432,-71.0727304,42.3691842,-71.0732545,MA-28 S,kendall,0.01
42.3788196,-71.1429239,42.3816875,-71.1440705,Larch Rd,alewife,0.01
42.3759271,-71.1177665,42.3755091,-71.1184847,Cambridge St,harvard,0.01
42.3976088,-71.1373301,42.3975858,-71.1369178,Alewife Linear Park/Somerville Community Path,alewife,0.01
42.3753123,-71.1499836,42.3769298,-71.1504403,Holworthy St,alewife,0.01
42.3792158,-71.1537365,42.3788815,-71.1537774,May St,alewife,0.01
42.3839015,-71.136001,42.3840267,-71.1362643,Saville St,alewife,0.03
42.3764059,-71.1372751,42.3768157,-71.1373086,Elmwood Ave,harvard,0.01
42.3798081,-71.1164999,42.3763208,-71.1156835,Oxford St,harvard,0.01
42.3937671,-71.1371061,42.3945964,-71.1378983,Somerville Community Path,alewife,1.01
42.3814861,-71.134957,42.3847805,-71.1277976,Huron Ave,porter,0.01
42.3844434,-71.1307215,42.3838672,-71.129315,Garden St,porter,0.01
42.393979,-71.1331289,42.3957473,-71.1332004,Montgomery St,alewife,0.01
42.3568149,-71.0940542,42.3590268,-71.0878005,Memorial Dr,kendall,0.01
42.3731606,-71.0810239,42.3723666,-71.079485,MA-28 S,kendall,0.02
42.3888604,-71.1432506,42.3939739,-71.1406027,Alewife Brook Pkwy,alewife,0.01
42.3660368,-71.1007271,42.3644325,-71.1020946,Norfolk St,central,0.01
42.3980724,-71.1466318,42.3978599,-71.1467523,Acorn Park Dr,alewife,0.01
42.385398,-71.1263639,42.3863603,-71.1269548,Raymond St,porter,0.02
42.3904991,-71.1341264,42.3902715,-71.1326959,Bellis Cir,alewife,0.01
42.3946307,-71.1412537,42.3948144,-71.1412802,Cambridge Park Dr,alewife,0.01
42.3682102,-71.1002544,42.3678552,-71.100499,Harvard St,central,0.11
42.3845029,-71.1212079,42.3848325,-71.1193304,Linnaean St,porter,0.01
42.3884641,-71.1189031,42.3886508,-71.1194942,Somerville Ave,porter,0.02
42.3946617,-71.1423892,42.3946736,-71.1422294,Alewife Station Access Rd,alewife,0.02
42.3552047,-71.101425,42.355985,-71.1033179,Amherst Alley,central,0.01
42.3978716,-71.1365983,42.3956965,-71.1383441,Alewife Linear Park/Somerville Community Path,alewife,0.01
42.3578365,-71.1088177,42.3582865,-71.1095917,Putnam Ave,central,0.03
42.3885658,-71.1190359,42.388542,-71.1190693,White St,porter,0.01
42.3551512,-71.1064348,42.3559361,-71.1055362,Waverly St,central,0.01
42.3662133,-71.1092663,42.3648946,-71.1090013,Kinnaird St,central,0.01
42.3696925,-71.1223628,42.3697225,-71.1225218,John F. Kennedy St,harvard,0.01
42.3896214,-71.1481302,42.3886414,-71.1436807,Concord Ave,alewife,0.15
42.3581998,-71.0941489,42.3588568,-71.0941578,Massachusetts Ave,kendall,0.01
42.3815249,-71.1344879,42.3847805,-71.1277976,Huron Ave,porter,0.01
42.3870846,-71.1414965,42.388369,-71.143116,Concord Ave,alewife,0.01
42.3663897,-71.112904,42.3653263,-71.1115697,Magee St,central,0.01
42.3736833,-71.1168957,42.3736965,-71.1170099,Massachusetts Ave,harvard,0.02
42.360576,-71.1071148,42.3647021,-71.1025516,Pearl St,central,0.01
42.3662134,-71.0885539,42.3642128,-71.0894887,Galileo Galilei Way,kendall,0.01
42.3788532,-71.1378835,42.3768157,-71.1373086,Fayerweather St,harvard,0.01
42.3682944,-71.1167439,42.3691478,-71.117424,John W. Weeks Bridge,harvard,0.01
42.3809417,-71.1130699,42.3806157,-71.113604,Museum St,harvard,0.01
42.3666619,-71.1088201,42.3651385,-71.1062018,Franklin St,central,0.01
42.3547849,-71.1073013,42.3559361,-71.1055362,Waverly St,central,0.01
42.3843422,-71.1410898,42.3844153,-71.1411927,Vassal Ln,alewife,0.16
42.3847858,-71.1311734,42.3851366,-71.1302632,Fenno St,porter,0.02
42.3741193,-71.1360159,42.3733606,-71.1347647,Gerrys Landing Rd,harvard,0.01
42.3726988,-71.1340015,42.3741966,-71.1321045,Memorial Dr,harvard,0.05
42.3758206,-71.1355183,42.3749858,-71.1352515,Channing St,harvard,0.01
42.3888732,-71.1441112,42.3891706,-71.1441156,Wheeler St,alewife,0.01
42.3743162,-71.1015492,42.3722128,-71.0989926,Hampshire St,central,0.03
42.3877006,-71.1408789,42.3869924,-71.1413103,New St,alewife,0.01
42.3884929,-71.143924,42.3883847,-71.1437892,Concord Ave,alewife,0.01
42.375657,-71.141525,42.3759804,-71.1416027,Brattle Cir,harvard,0.01
42.3565492,-71.1048725,42.3574293,-71.1036933,Waverly St,central,0.03
42.3842532,-71.1219619,42.3848325,-71.1193304,Linnaean St,porter,0.02
42.3966067,-71.1363369,42.3957432,-71.1362989,Clifton St,alewife,0.02
42.3860061,-71.1277769,42.3881936,-71.1193282,Upland Rd,porter,0.01
42.3992339,-71.1293894,42.3988243,-71.1286664,Seven Pines Ave,davis,0.01
42.3917217,-71.1265154,42.3925211,-71.1264474,Fairfield St,davis,0.01
42.3733311,-71.1335568,42.3741966,-71.1321045,Memorial Dr,harvard,0.01
42.3758618,-71.1415742,42.3759804,-71.1416027,Brattle Cir,harvard,0.01
42.3724736,-71.0794097,42.3627026,-71.0842868,Third St,kendall,0.16
42.3794057,-71.125691,42.3783692,-71.1237481,Concord Ave,harvard,0.01
42.3635384,-71.1113852,42.3630833,-71.1111204,Sullivan Pl,central,0.01
42.4016571,-71.1353848,42.3989641,-71.1409284,Alewife Brook Pkwy,alewife,0.01
42.3868373,-71.1191047,42.3886815,-71.1194648,Massachusetts Ave,porter,0.05
42.3678405,-71.1093764,42.3683792,-71.1087841,Hancock St,central,0.01
42.3610921,-71.1022753,42.3614023,-71.1027803,Brookline Pl,central,0.01
42.3778494,-71.1432637,42.3849777,-71.1414246,Fresh Pond Pkwy,alewife,0.01
42.3787891,-71.1145967,42.3773552,-71.114066,Divinity Ave,harvard,0.01
42.3848892,-71.1412652,42.3850164,-71.1416539,Fresh Pond Pkwy,alewife,0.01
42.3703352,-71.0949657,42.3683374,-71.096088,Union St,central,0.02
42.3784941,-71.1324198,42.3789273,-71.1308399,Brewster St,harvard,0.01
42.3568186,-71.0937622,42.3586818,-71.087905,Memorial Dr,kendall,0.01
42.3574229,-71.1036431,42.3574293,-71.1036933,Albany St,central,0.01
42.361915,-71.0954354,42.3631019,-71.0952773,Osborn St,kendall,0.01
42.3849994,-71.127284,42.385398,-71.1263639,Huron Ave,porter,0.01
42.4026712,-71.1344171,42.3989641,-71.1409284,Alewife Brook Pkwy,alewife,0.01
42.3685882,-71.0774056,42.3689584,-71.0802945,Spring St,kendall,0.06
42.3978489,-71.1325374,42.3956965,-71.1383441,Alewife Linear Park/Somerville Community Path,alewife,0.01
42.368035,-71.0839377,42.3659971,-71.084439,5th St,kendall,0.01
42.3845651,-71.1298442,42.3856323,-71.1305956,Sherman St,porter,0.05
42.3712958,-71.092541,42.3700193,-71.093266,Willow St,kendall,0.01
42.3694062,-71.1033812,42.3666022,-71.1056957,Inman St,central,0.03
42.375419,-71.1141904,42.3755062,-71.1149625,Cambridge St,harvard,0.01
42.3754612,-71.1099346,42.3749177,-71.1100676,Trowbridge St,harvard,0.01
42.3708366,-71.1139167,42.3733848,-71.1186191,Massachusetts Ave,harvard,0.01
42.3683374,-71.096088,42.3688349,-71.096816,Market St,central,0.12
42.3656529,-71.1160633,42.3691478,-71.117424,John W. Weeks Bridge,harvard,0.01
42.3654733,-71.1428092,42.3679379,-71.1358904,Greenough Blvd,harvard,0.01
42.376481,-71.1114995,42.3771875,-71.1114805,Kirkland Rd,harvard,0.01
42.3536973,-71.1105904,42.3536879,-71.1104132,Boston Univ Bridge,central,0.01
42.3657326,-71.082371,42.3626247,-71.0843649,Third St,kendall,0.03
42.3909463,-71.1526801,42.3904002,-71.152766,Concord Ave,alewife,0.01
42.3727197,-71.1205384,42.3722598,-71.1193538,Mt Auburn St,harvard,0.01
42.3871726,-71.1378883,42.3874592,-71.1383258,Field St,alewife,0.01
42.3957006,-71.1406129,42.3947455,-71.1404753,Alewife Brook Pkwy,alewife,0.01
42.3741455,-71.1384096,42.3746985,-71.1381565,Coolidge Hill Rd,harvard,0.01
42.3652828,-71.0842737,42.3653229,-71.0845929,Munroe St,kendall,0.01
42.3577025,-71.0945593,42.3579072,-71.0946831,Massachusetts Ave,central,0.32
42.398015,-71.1351363,42.3956965,-71.1383441,Alewife Linear Park/Somerville Community Path,alewife,0.01
42.3918825,-71.1461573,42.3891643,-71.1460351,Fawcett St,alewife,0.01
42.3615117,-71.0856851,42.3615624,-71.0862353,Carleton St,kendall,0.01
42.3650079,-71.1076987,42.3656114,-71.1040552,Western Ave,central,0.01
42.3650432,-71.1045589,42.3653108,-71.1042956,Magazine St,central,0.01
42.3668117,-71.0924075,42.3654283,-71.0911269,Hampshire St,kendall,0.23
42.3686113,-71.1146985,42.3704873,-71.1144672,Banks St,harvard,0.01
42.3696228,-71.0663251,42.3701792,-71.0688373,N Bank Bridge,kendall,0.01
42.3638971,-71.0782422,42.3629367,-71.0783173,Edwin H Land Blvd,kendall,0.01
42.3741633,-71.1132715,42.3748279,-71.1144583,Broadway,harvard,0.01
42.3665716,-71.0882463,42.3663255,-71.0879899,Binney St,kendall,0.01
42.367853,-71.1135255,42.3703582,-71.1133199,Putnam Ave,harvard,0.01
42.361189,-71.0988027,42.3613432,-71.0984499,Landsdowne St,central,0.02
42.3774172,-71.1491493,42.378906,-71.1483499,Park Ave,alewife,0.01
42.3972821,-71.1304957,42.3974464,-71.130226,Harvey St,davis,0.01
42.3866314,-71.1407876,42.3868803,-71.1410293,Concord Ave,alewife,0.01
42.3619167,-71.0938468,42.361782,-71.0939196,Portland St,kendall,0.01
42.366001,-71.1007514,42.3644325,-71.1020946,Norfolk St,central,0.19
42.3767846,-71.1298388,42.3776748,-71.1292919,Mercer Cir,harvard,0.01
42.3863567,-71.1471095,42.3867186,-71.1460652,Concord Ave,alewife,0.09
42.371224,-71.0889462,42.3663022,-71.0917948,Cardinal Medeiros Ave,kendall,0.01
42.3853803,-71.123684,42.3855266,-71.1232309,Hillside Ave,porter,0.01
42.3915971,-71.1478365,42.3896214,-71.1481302,Moulton St,alewife,0.01
42.3851792,-71.116141,42.3853803,-71.1192672,Forest St,porter,0.01
42.3761934,-71.1546841,42.3763181,-71.1516874,Thingvalla Ave,alewife,0.01
42.3846463,-71.1281069,42.3847805,-71.1277976,Huron Ave,porter,0.02
42.3768016,-71.1320422,42.3767516,-71.1303171,Hubbard Park Rd,harvard,0.01
42.3952557,-71.1308483,42.395805,-71.1308598,Cedar St,davis,0.02
42.3763416,-71.1231541,42.3765687,-71.1221826,Mason St,harvard,0.01
42.398743,-71.138785,42.3988798,-71.1409232,Whittemore Ave,alewife,0.02
42.3539817,-71.1103117,42.3544298,-71.1104328,Brookline St,central,0.01
42.3846499,-71.1296647,42.3845651,-71.1298442,Winslow St,porter,0.01
42.3891653,-71.1227283,42.3890741,-71.1219861,Regent St,porter,0.01
42.379603,-71.1453608,42.3799709,-71.1445372,Huron Ave,alewife,0.01
42.3770485,-71.1243477,42.3770659,-71.124278,St Johns Rd,harvard,0.01
42.3570043,-71.1053196,42.35811,-71.1072398,Allston St,central,0.03
42.3946685,-71.1422982,42.3946736,-71.1422294,Alewife Station Access Rd,alewife,0.01
42.3636509,-71.0821441,42.3639493,-71.0834123,Kendall St,kendall,0.01
42.3676974,-71.0742187,42.3678264,-71.0744471,Cambridge Pkwy,kendall,0.01
42.3988579,-71.1319295,42.3979813,-71.1308373,Massachusetts Ave,davis,0.04
42.3721975,-71.0833713,42.3723671,-71.0846167,Gore St,kendall,0.01
42.3768041,-71.1482716,42.3756964,-71.1481067,Homer Ave,alewife,0.01
42.3810247,-71.1329846,42.3811984,-71.1319938,Wyman Rd,porter,0.01
42.3768999,-71.1492644,42.3771189,-71.1493314,Holworthy Pl,alewife,0.01
42.3657617,-71.0999671,42.366001,-71.1007514,Washington St,central,0.01
42.3704025,-71.0799769,42.3627026,-71.0842868,Third St,kendall,0.01
42.3563486,-71.0980183,42.3571043,-71.0954583,Amherst Alley,central,0.01
42.371718,-71.1391974,42.3716224,-71.1400685,Shady Hill Rd,harvard,0.01
42.3560891,-71.0965635,42.3590268,-71.0878005,Memorial Dr,kendall,0.01
42.3782787,-71.1254883,42.377226,-71.1239594,Berkeley St,harvard,0.01
42.3759158,-71.1176582,42.3755091,-71.1184847,Cambridge St,harvard,0.01
42.3732224,-71.1341732,42.3741966,-71.1321045,Memorial Dr,harvard,0.01
42.3943705,-71.1405928,42.3946307,-71.1412537,Cambridge Park Dr,alewife,0.02
42.3702468,-71.088776,42.3703887,-71.0894291,James Way/Wellington Harrington Memorial Way,kendall,0.01
42.3708592,-71.0745944,42.371101,-71.0756833,Glassworks Ave,kendall,0.01
42.3969537,-71.1275898,42.3969717,-71.1276092,Locke St,davis,0.01
42.3820234,-71.1381279,42.3834514,-71.1377488,Chilton St,alewife,0.01
42.3616454,-71.078938,42.3623298,-71.0788609,Edwin H Land Blvd,kendall,0.01
42.3847269,-71.1299693,42.3856323,-71.1305956,Sherman St,porter,0.01
42.3880092,-71.1428,42.3879833,-71.1429095,Concord Ln,alewife,0.01
42.376131,-71.1450294,42.3762312,-71.1448755,Old Dee Rd,alewife,0.01
42.3625147,-71.1160507,42.3614681,-71.1159722,Memorial Dr,central,0.01
42.3777394,-71.1201964,42.3733848,-71.1186191,Massachusetts Ave,harvard,0.01
42.3970514,-71.1234775,42.3968502,-71.1223386,Alewife Linear Park/Somerville Community Path,davis,0.21
42.3631304,-71.1146258,42.3643936,-71.1148224,Blackstone St,central,0.01
42.3798776,-71.1283627,42.3802991,-71.1273312,Parker St,harvard,0.01
42.397953,-71.1267185,42.397811,-71.1250978,Howard St,davis,0.05
42.3640022,-71.0990056,42.3639401,-71.099102,School St,central,0.01
42.372877,-71.134286,42.3741966,-71.1321045,Memorial Dr,harvard,0.01
42.37637,-71.1157253,42.3763208,-71.1156835,Oxford St,harvard,0.01
42.3978365,-71.1418496,42.3970855,-71.1403405,Concord Turnpike,alewife,0.01
42.4003873,-71.136599,42.3989641,-71.1409284,Alewife Brook Pkwy,alewife,0.01
42.3663907,-71.113065,42.3653263,-71.1115697,Magee St,central,0.01
42.3884299,-71.1438467,42.3883847,-71.1437892,Concord Ave,alewife,0.01
42.3576382,-71.1136248,42.3571346,-71.1132743,Magazine St,central,0.01
42.3642128,-71.0894887,42.3635566,-71.0878113,Cambridge Center,kendall,0.01
42.3618177,-71.0861998,42.3624603,-71.0861065,Main St,kendall,0.02
42.3615536,-71.1010959,42.3629518,-71.0995844,Sidney St,central,0.01
42.3691632,-71.0915333,42.368105,-71.0921395,Berkshire St,kendall,0.01
42.358095,-71.090592,42.3590268,-71.0878005,Memorial Dr,kendall,0.09
42.3651614,-71.1403389,42.3679379,-71.1358904,Greenough Blvd,harvard,0.01
42.3955969,-71.1428415,42.3946617,-71.1423892,Alewife Station Access Rd,alewife,0.01
42.3794659,-71.1201069,42.3795476,-71.1200279,Massachusetts Ave,harvard,0.01
42.3887681,-71.1283258,42.38879,-71.1283375,Raymond St,porter,0.01
42.3560795,-71.0956444,42.3586818,-71.087905,Memorial Dr,kendall,0.01
42.3764782,-71.1124524,42.376351,-71.1126229,Kirkland St,harvard,0.01
42.3741504,-71.0928479,42.3727534,-71.0932842,Windsor St,central,0.01
42.3674299,-71.0919764,42.3672459,-71.0912072,Lilac Ct,kendall,0.01
42.3743019,-71.0947526,42.3742147,-71.094727,Webster Ave,central,0.01
42.362147,-71.1012066,42.3628727,-71.1024328,Franklin St,central,0.01
42.3865188,-71.1401408,42.3867905,-71.1408045,Concord Ave,alewife,0.01
42.368189,-71.0992297,42.3679237,-71.0994158,Norfolk St,central,0.01
42.3788312,-71.147929,42.3789258,-71.1485211,Huron Ave,alewife,0.01
42.3763508,-71.1397609,42.3732049,-71.1207696,Brattle St,harvard,0.05
42.3980024,-71.1346375,42.3956965,-71.1383441,Alewife Linear Park/Somerville Community Path,alewife,0.01
42.3660438,-71.1147806,42.3669707,-71.1148024,Banks St,harvard,0.01
42.3882635,-71.1192751,42.3881936,-71.1193282,Massachusetts Ave,porter,0.03
42.3728221,-71.082808,42.3659971,-71.084439,5th St,kendall,0.01
42.3730763,-71.1262739,42.3730943,-71.1262987,Memorial Dr,harvard,0.01
42.3697724,-71.1208732,42.3697927,-71.1224694,Memorial Dr,harvard,0.01
42.3725138,-71.1237024,42.3733563,-71.1229501,University Rd,harvard,0.01
42.361716,-71.1152243,42.3655671,-71.103985,River St,central,0.01
42.3618337,-71.0938917,42.361782,-71.0939196,Portland St,kendall,0.01
42.374474,-71.1269416,42.372885,-71.1213966,Mt Auburn St,harvard,0.01
42.3618667,-71.1160097,42.3614681,-71.1159722,Memorial Dr,central,0.01
42.365378,-71.1066079,42.3651385,-71.1062018,Franklin St,central,0.01
42.3806693,-71.119902,42.3733848,-71.1186191,Massachusetts Ave,harvard,0.01
42.3622883,-71.0783975,42.3627396,-71.0821529,Broad Canal Way,kendall,0.08
42.3676251,-71.0857271,42.3662019,-71.086068,6th St,kendall,0.01
42.3944366,-71.1583453,42.3954398,-71.1586656,Blanchard Rd,alewife,0.01
42.3600115,-71.1046851,42.360212,-71.1050421,Emily St,central,0.01
42.3695123,-71.1134064,42.3703582,-71.1133199,Putnam Ave,harvard,0.01
42.3780937,-71.1296966,42.3780719,-71.1297719,Craigie St,harvard,0.01
42.3761028,-71.1450226,42.3766939,-71.1448108,Old Dee Rd,alewife,0.01
42.379418,-71.1362614,42.3790033,-71.1363559,Reservoir St,harvard,0.01
42.3833367,-71.1291858,42.3831157,-71.1288013,Gray Gardens W,porter,0.01
42.3625076,-71.0875348,42.3624016,-71.0861127,Main St,kendall,0.01
42.3565176,-71.1114723,42.3647021,-71.1025516,Pearl St,central,0.01
42.3706112,-71.0764585,42.3710199,-71.0798451,Cambridge St,kendall,0.01
42.3710524,-71.1010437,42.3706651,-71.1000866,St Mary Rd,central,0.01
42.3755091,-71.1184847,42.3733848,-71.1186191,Massachusetts Ave,harvard,0.06
42.3823167,-71.1353616,42.3825294,-71.1355585,Vassal Ln,porter,0.01
42.3804976,-71.1253587,42.3751387,-71.119148,Garden St,harvard,0.01
42.3756502,-71.115521,42.3755734,-71.114778,Cambridge St,harvard,0.01
42.3689825,-71.1170932,42.369606,-71.1181555,Memorial Dr,harvard,0.01
42.3937203,-71.1503421,42.3934792,-71.1504059,Smith Pl,alewife,0.01
42.3742908,-71.1393045,42.3748786,-71.1392396,Coolidge Hill Rd,harvard,0.01
42.390616,-71.1428989,42.3901113,-71.1421846,Terminal Rd,alewife,0.01
42.3806159,-71.1341581,42.3815151,-71.1340945,Appleton St,porter,0.01
42.378239,-71.1200659,42.3733848,-71.1186191,Massachusetts Ave,harvard,0.01
42.3825889,-71.1380035,42.3834514,-71.1377488,Chilton St,alewife,0.01
42.386411,-71.1284545,42.386163,-71.1290345,Chetwynd Rd,porter,0.01
42.3898456,-71.1205293,42.3887168,-71.1196439,Massachusetts Ave,porter,0.01
42.396472,-71.1308752,42.3971971,-71.1308818,Cedar St,davis,0.01
42.3573815,-71.1004845,42.3581066,-71.0990139,Vassar St,central,0.01
42.3757355,-71.1182946,42.3755091,-71.1184847,Cambridge St,harvard,0.01
42.3631237,-71.1109942,42.3655671,-71.103985,River St,central,0.02
42.3830668,-71.1360487,42.3839015,-71.136001,Granville Rd,alewife,0.01
42.3802991,-71.1273312,42.3783692,-71.1237481,Concord Ave,harvard,0.06
42.3762941,-71.1326717,42.3756056,-71.1282165,Foster St,harvard,0.01
42.3657565,-71.1061559,42.3664103,-71.105406,Pleasant St,central,0.01
42.3799537,-71.1520988,42.3789258,-71.1485211,Huron Ave,alewife,0.01
42.3732755,-71.1031769,42.3731778,-71.1026969,Fainwood Cir,central,0.01
42.3740794,-71.1248956,42.372885,-71.1213966,Mt Auburn St,harvard,0.04
42.3738218,-71.1021524,42.3707636,-71.1046875,Fayette St,central,0.01
42.3833643,-71.119623,42.3887168,-71.1196439,Massachusetts Ave,porter,0.11
42.3604866,-71.1115178,42.3607892,-71.1120357,Allston St,central,0.01
